ets Jun  8 2016 00:22:57

rst:0x1 (POWERON_RESET),boot:0x33 (SPI_FAST_FLASH_BOOT)
configsip: 0, SPIWP:0xee
clk_drv:0x00,q_drv:0x00,d_drv:0x00,cs0_drv:0x00,hd_drv:0x00,wp_drv:0x00
mode:DIO, clock div:2
load:0x3fff0018,len:4
load:0x3fff001c,len:3948
load:0x40078000,len:8336
load:0x40080400,len:5836
csum err:0x7d!=0xbb
ets_main.c 371
ets Jun  8 2016 00:22:57

rst:0x10 (RTCWDT_RTC_RESET),boot:0x33 (SPI_FAST_FLASH_BOOT)
configsip: 0, SPIWP:0xee
clk_drv:0x00,q_drv:0x00,d_drv:0x00,cs0_drv:0x00,hd_drv:0x00,wp_drv:0x00
mode:DIO, clock div:2
cmd len -1
ets_main.c 371
ets Jun  8 2016 00:22:57

rst:0x10 (RTCWDT_RTC_RESET),boot:0x33 (SPI_FAST_FLASH_BOOT)
configsip: 0, SPIWP:0xee
clk_drv:0x00,q_drv:0x00,d_drv:0x00,cs0_drv:0x00,hd_drv:0x00,wp_drv:0x00
mode:DIO, clock div:2
cmd len -1
ets_main.c 371
ets Jun  8 2016 00:22:57

rst:0x10 (RTCWDT_RTC_RESET),boot:0x13 (SPI_FAST_FLASH_BOOT)
configsip: 0, SPIWP:0xee
clk_drv:0x00,q_drv:0x00,d_drv:0x00,cs0_drv:0x00,hd_drv:0x00,wp_drv:0x00
mode:DIO, clock div:2
load:0x3fff0018,len:4
load:0x3fff001c,len:3948
load:0x40078000,len:8336
load:0x40080400,len:5836
entry 0x400806bc
Booting Lua RTOS...
  /\       /\
 /  \_____/  \
/_____________\
W H I T E C A T

Lua RTOS beta 0.1. Copyright (C) 2015 - 2018 whitecatboard.org

build 1544487159
commit 54a2b1b22b0bbfab6f873c561c2d4ae4682f4026
Running from factory partition
board type ESP32COREBOARD
cpu ESP32 rev 1 at 240 Mhz
spiffs start address at 0xf000, size 512 Kb
spiffs mounted on /

Lua RTOS beta 0.1 powered by Lua 5.3.4

Executing /system.lua ...
Executing /autorun.lua ...
i2c0 at pins scl=GPIO21/sdc=GPIO22
OLED SSD1306 at i2c0
UART0: rx=GPIO3 tx=GPIO1
UART1: rx=GPIO12 tx=GPIO13
UART2: rx=GPIO16 tx=GPIO17
uart1: at pins rx=GPIO12/tx=GPIO13
uart1: speed 9600 bauds
uart1: interrupts enabled
$GPGGA,145507.00,4921.11683,N,01751.01680,E,1,07,1.87,428.2,M,41.4,M,,*54
$GPGGA,145508.00,4921.11729,N,01751.01678,E,1,08,1.59,427.5,M,41.4,M,,*59
$GPGGA,145509.00,4921.11787,N,01751.01715,E,1,08,1.26,427.0,M,41.4,M,,*5B
$GPGGA,145510.00,4921.11805,N,01751.01746,E,1,09,1.53,426.4,M,41.4,M,,*56
$GPGGA,145511.00,4921.11810,N,01751.01711,E,1,09,1.53,426.2,M,41.4,M,,*57
$GPGGA,145512.00,4921.11822,N,01751.01734,E,1,09,1.53,425.7,M,41.4,M,,*54
$GPGGA,145513.00,4921.11827,N,01751.01723,E,1,09,1.53,425.3,M,41.4,M,,*52
$GPGGA,145514.00,4921.11841,N,01751.01728,E,1,09,1.53,424.9,M,41.4,M,,*55
$GPGGA,145515.00,4921.11819,N,01751.01798,E,1,10,1.26,424.0,M,41.4,M,,*51
$GPGGA,145516.00,4921.11812,N,01751.01849,E,1,08,1.26,422.9,M,41.4,M,,*5C
$GPGGA,145517.00,4921.11817,N,01751.01893,E,1,08,1.26,422.0,M,41.4,M,,*56
$GPGGA,145518.00,4921.11808,N,01751.01905,E,1,09,1.67,421.4,M,41.4,M,,*5A
$GPGGA,145519.00,4921.11769,N,01751.01914,E,1,09,1.10,421.8,M,41.4,M,,*5F
$GPGGA,145520.00,4921.11731,N,01751.01873,E,1,09,1.10,422.4,M,41.4,M,,*57
$GPGGA,145521.00,4921.11679,N,01751.01850,E,1,07,1.10,423.2,M,41.4,M,,*53
$GPGGA,145522.00,4921.11652,N,01751.01816,E,1,07,1.10,423.8,M,41.4,M,,*51
$GPGGA,145523.00,4921.11631,N,01751.01760,E,1,07,1.10,424.6,M,41.4,M,,*52
$GPGGA,145524.00,4921.11590,N,01751.01805,E,1,07,1.10,424.5,M,41.4,M,,*52
$GPGGA,145525.00,4921.11571,N,01751.01840,E,1,07,1.10,424.2,M,41.4,M,,*5A
$GPGGA,145526.00,4921.11595,N,01751.01854,E,1,09,1.01,423.3,M,41.4,M,,*5E
$GPGGA,145527.00,4921.11653,N,01751.01888,E,1,08,1.41,421.8,M,41.4,M,,*5B
$GPGGA,145528.00,4921.11661,N,01751.01950,E,1,08,1.67,421.1,M,41.4,M,,*5C
$GPGGA,145529.00,4921.11672,N,01751.01977,E,1,07,1.67,420.7,M,41.4,M,,*52
$GPGGA,145530.00,4921.11674,N,01751.01993,E,1,08,1.10,420.5,M,41.4,M,,*5B
$GPGGA,145531.00,4921.11679,N,01751.01989,E,1,08,1.10,420.6,M,41.4,M,,*5F
$GPGGA,145532.00,4921.11696,N,01751.01975,E,1,08,1.10,420.4,M,41.4,M,,*5C
$GPGGA,145533.00,4921.11720,N,01751.01955,E,1,09,1.10,420.3,M,41.4,M,,*55
$GPGGA,145534.00,4921.11737,N,01751.01963,E,1,09,1.05,420.2,M,41.4,M,,*54
$GPGGA,145535.00,4921.11755,N,01751.01945,E,1,09,1.05,420.1,M,41.4,M,,*56
$GPGGA,145536.00,4921.11766,N,01751.01932,E,1,09,1.05,419.9,M,41.4,M,,*57
$GPGGA,145537.00,4921.11756,N,01751.01905,E,1,09,0.96,420.1,M,41.4,M,,*58
$GPGGA,145538.00,4921.11765,N,01751.01855,E,1,09,0.96,420.0,M,41.4,M,,*52
$GPGGA,145539.00,4921.11764,N,01751.01820,E,1,09,0.96,419.9,M,41.4,M,,*53
$GPGGA,145540.00,4921.11760,N,01751.01797,E,1,09,1.13,419.7,M,41.4,M,,*58
$GPGGA,145541.00,4921.11775,N,01751.01775,E,1,09,1.13,419.3,M,41.4,M,,*55
$GPGGA,145542.00,4921.11768,N,01751.01772,E,1,09,1.13,419.2,M,41.4,M,,*5C
$GPGGA,145543.00,4921.11773,N,01751.01728,E,1,09,1.13,419.2,M,41.4,M,,*58
$GPGGA,145544.00,4921.11800,N,01751.01728,E,1,09,1.13,418.9,M,41.4,M,,*5E
$GPGGA,145545.00,4921.11823,N,01751.01674,E,1,09,1.13,418.7,M,41.4,M,,*58
$GPGGA,145546.00,4921.11807,N,01751.01659,E,1,08,1.13,418.5,M,41.4,M,,*51
$GPGGA,145547.00,4921.11817,N,01751.01636,E,1,08,1.13,417.9,M,41.4,M,,*5B
$GPGGA,145548.00,4921.11816,N,01751.01608,E,1,08,1.13,417.8,M,41.4,M,,*59
$GPGGA,145549.00,4921.11826,N,01751.01632,E,1,08,1.13,417.3,M,41.4,M,,*59
$GPGGA,145550.00,4921.11823,N,01751.01574,E,1,08,1.13,417.3,M,41.4,M,,*55
$GPGGA,145551.00,4921.11826,N,01751.01555,E,1,08,1.13,417.1,M,41.4,M,,*50
$GPGGA,145552.00,4921.11825,N,01751.01536,E,1,07,1.25,416.8,M,41.4,M,,*57
$GPGGA,145553.00,4921.11817,N,01751.01541,E,1,09,1.25,416.4,M,41.4,M,,*55
$GPGGA,145554.00,4921.11805,N,01751.01509,E,1,09,1.25,416.3,M,41.4,M,,*5A
$GPGGA,145555.00,4921.11799,N,01751.01534,E,1,09,1.25,416.0,M,41.4,M,,*5C
$GPGGA,145556.00,4921.11801,N,01751.01564,E,1,09,1.13,415.5,M,41.4,M,,*57
$GPGGA,145557.00,4921.11805,N,01751.01586,E,1,09,1.13,415.0,M,41.4,M,,*5B
$GPGGA,145558.00,4921.11810,N,01751.01583,E,1,09,1.13,414.7,M,41.4,M,,*53
$GPGGA,145559.00,4921.11826,N,01751.01610,E,1,09,1.67,414.3,M,41.4,M,,*59
$GPGGA,145600.00,4921.11829,N,01751.01609,E,1,08,1.67,414.2,M,41.4,M,,*51
$GPGGA,145601.00,4921.11830,N,01751.01599,E,1,08,1.67,414.0,M,41.4,M,,*50
$GPGGA,145602.00,4921.11843,N,01751.01599,E,1,10,1.67,413.7,M,41.4,M,,*5E
$GPGGA,145603.00,4921.11870,N,01751.01579,E,1,09,1.41,413.1,M,41.4,M,,*5B
$GPGGA,145604.00,4921.11910,N,01751.01613,E,1,09,1.13,412.4,M,41.4,M,,*57
$GPGGA,145605.00,4921.11957,N,01751.01658,E,1,08,1.13,411.5,M,41.4,M,,*59
$GPGGA,145606.00,4921.11964,N,01751.01637,E,1,08,1.13,411.0,M,41.4,M,,*56
$GPGGA,145607.00,4921.11977,N,01751.01637,E,1,08,1.13,410.4,M,41.4,M,,*50
$GPGGA,145608.00,4921.11992,N,01751.01645,E,1,08,1.13,409.7,M,41.4,M,,*5A
$GPGGA,145609.00,4921.12017,N,01751.01691,E,1,08,1.13,409.1,M,41.4,M,,*53
$GPGGA,145610.00,4921.12044,N,01751.01733,E,1,08,1.13,408.4,M,41.4,M,,*50
$GPGGA,145611.00,4921.12083,N,01751.01792,E,1,08,1.13,407.8,M,41.4,M,,*52
$GPGGA,145612.00,4921.12114,N,01751.01854,E,1,09,1.13,407.3,M,41.4,M,,*51
$GPGGA,145613.00,4921.12149,N,01751.01921,E,1,09,1.13,406.6,M,41.4,M,,*5F
$GPGGA,145614.00,4921.12167,N,01751.01939,E,1,08,1.41,406.1,M,41.4,M,,*5C
$GPGGA,145615.00,4921.12136,N,01751.01856,E,1,08,1.01,406.7,M,41.4,M,,*53
$GPGGA,145616.00,4921.12079,N,01751.01739,E,1,08,1.01,407.6,M,41.4,M,,*5C
$GPGGA,145617.00,4921.12041,N,01751.01645,E,1,08,1.01,408.3,M,41.4,M,,*56
$GPGGA,145618.00,4921.12056,N,01751.01674,E,1,08,1.41,407.8,M,41.4,M,,*5D
$GPGGA,145619.00,4921.12020,N,01751.01599,E,1,08,1.01,408.3,M,41.4,M,,*5D
$GPGGA,145620.00,4921.11982,N,01751.01511,E,1,09,1.01,408.9,M,41.4,M,,*5E
$GPGGA,145621.00,4921.11932,N,01751.01423,E,1,09,1.01,409.5,M,41.4,M,,*59
$GPGGA,145622.00,4921.11907,N,01751.01373,E,1,09,0.96,409.9,M,41.4,M,,*5D
$GPGGA,145623.00,4921.11885,N,01751.01296,E,1,10,0.96,410.5,M,41.4,M,,*51
$GPGGA,145624.00,4921.11875,N,01751.01259,E,1,10,0.96,411.0,M,41.4,M,,*5E
$GPGGA,145625.00,4921.11881,N,01751.01249,E,1,10,0.96,411.3,M,41.4,M,,*56
$GPTXT,01,01,02,u-blox ag - www.u-blox.com*50
$GPTXT,01,01,02,HW  UBX-G60xx  00040007 FF7FFFFFp*53
$GPTXT,01,01,02,ROM CORE 7.03 (45969) Mar 17 2011 16:18:34*59
$GPTXT,01,01,02,ANTSUPERV=AC SD PDoS SR*20
$GPTXT,01,01,02,ANTSTATUS=DONTKNOW*33
$GPRMC,145626.06,V,,,,,,,290119,,,N*7B
$GPVTG,,,,,,,,,N*30
$GPGGA,145626.06,,,,,0,00,99.99,,,,,,*62
$GPGSA,A,1,,,,,,,,,,,,,99.99,99.99,99.99*30
$GPGSV,3,1,10,01,07,029,,10,15,307,,12,31,237,,13,32,165,*70
$GPGSV,3,2,10,15,50,209,,17,46,075,,19,48,119,,20,11,280,*70
$GPGSV,3,3,10,24,64,294,,28,19,056,*72
$GPGLL,,,,,145626.06,V,N*4E
$GPTXT,01,01,02,ANTSTATUS=INIT*25
$GPRMC,145627.00,V,,,,,,,290119,,,N*7C
$GPVTG,,,,,,,,,N*30
$GPGGA,145627.00,,,,,0,06,4.11,,,,,,*57
$GPGSA,A,1,24,15,19,13,12,20,,,,,,,4.23,4.11,1.00*09
$GPGSV,3,1,10,01,07,029,,10,15,307,,12,31,237,26,13,32,165,30*77
$GPGSV,3,2,10,15,50,209,32,17,46,075,,19,48,119,23,20,11,280,23*71
$GPGSV,3,3,10,24,64,294,29,28,19,056,*79
$GPGLL,,,,,145627.00,V,N*49
$GPTXT,01,01,02,ANTSTATUS=OK*3B
$GPRMC,145628.00,V,,,,,,,290119,,,N*73
$GPVTG,,,,,,,,,N*30
$GPGGA,145628.00,,,,,0,06,3.37,,,,,,*5B
$GPGSA,A,1,24,15,19,13,12,20,,,,,,,6.41,3.37,5.45*09
$GPGSV,3,1,10,01,07,029,,10,15,307,,12,31,237,26,13,32,165,30*77
$GPGSV,3,2,10,15,50,209,31,17,46,075,,19,48,119,23,20,11,280,23*72
$GPGSV,3,3,10,24,64,294,30,28,19,056,*71
$GPGLL,,,,,145628.00,V,N*46
$GPRMC,145629.00,A,4921.12453,N,01751.02302,E,0.464,,290119,,,A*77
$GPVTG,,T,,M,0.464,N,0.860,K,A*2B
$GPGGA,145629.00,4921.12453,N,01751.02302,E,1,07,1.67,405.1,M,41.4,M,,*59
$GPGSA,A,3,24,15,19,13,12,10,20,,,,,,2.67,1.67,2.09*02
$GPGSV,3,1,10,01,07,029,,10,15,307,19,12,31,237,27,13,32,165,30*7E
$GPGSV,3,2,10,15,50,209,31,17,46,075,,19,48,119,22,20,11,280,23*73
$GPGSV,3,3,10,24,64,294,30,28,19,056,*71
$GPGLL,4921.12453,N,01751.02302,E,145629.00,A,A*6A
$GPRMC,145630.00,A,4921.12375,N,01751.02240,E,0.465,,290119,,,A*7A
$GPVTG,,T,,M,0.465,N,0.861,K,A*2B
$GPGGA,145630.00,4921.12375,N,01751.02240,E,1,07,1.67,406.1,M,41.4,M,,*56
$GPGSA,A,3,24,15,19,13,12,10,20,,,,,,2.67,1.67,2.09*02
$GPGSV,3,1,10,01,07,029,,10,15,307,18,12,31,237,27,13,32,165,30*7F
$GPGSV,3,2,10,15,50,209,31,17,46,075,,19,48,119,22,20,11,280,24*74
$GPGSV,3,3,10,24,64,294,31,28,19,056,*70
$GPGLL,4921.12375,N,01751.02240,E,145630.00,A,A*66
$GPRMC,145631.00,A,4921.12330,N,01751.02152,E,0.428,,290119,,,A*73
$GPVTG,,T,,M,0.428,N,0.793,K,A*20
$GPGGA,145631.00,4921.12330,N,01751.02152,E,1,07,1.67,404.5,M,41.4,M,,*50
$GPGSA,A,3,24,15,19,13,12,10,20,,,,,,2.67,1.67,2.09*02
$GPGSV,3,1,10,01,07,029,,10,15,307,18,12,31,237,27,13,32,165,30*7F
$GPGSV,3,2,10,15,50,209,31,17,46,075,,19,48,119,23,20,11,280,24*75
$GPGSV,3,3,10,24,64,294,31,28,19,056,*70
$GPGLL,4921.12330,N,01751.02152,E,145631.00,A,A*66
$GPRMC,145632.00,A,4921.12305,N,01751.02071,E,0.204,,290119,,,A*7E
$GPVTG,,T,,M,0.204,N,0.378,K,A*29
$GPGGA,145632.00,4921.12305,N,01751.02071,E,1,07,1.41,404.7,M,41.4,M,,*53
$GPGSA,A,3,24,15,19,13,12,10,20,,,,,,2.35,1.41,1.88*0B
$GPGSV,3,1,10,01,07,029,,10,15,307,18,12,31,237,27,13,32,165,30*7F
$GPGSV,3,2,10,15,50,209,31,17,46,075,05,19,48,119,23,20,11,280,24*70
$GPGSV,3,3,10,24,64,294,31,28,19,056,*70
$GPGLL,4921.12305,N,01751.02071,E,145632.00,A,A*63
$GPRMC,145633.00,A,4921.12308,N,01751.01988,E,0.179,,290119,,,A*77
$GPVTG,,T,,M,0.179,N,0.332,K,A*2E
$GPGGA,145633.00,4921.12308,N,01751.01988,E,1,07,1.41,404.8,M,41.4,M,,*5C
$GPGSA,A,3,24,15,19,13,12,10,20,,,,,,2.35,1.41,1.88*0B
$GPGSV,3,1,10,01,07,029,,10,15,307,19,12,31,237,27,13,32,165,30*7E
$GPGSV,3,2,10,15,50,209,31,17,46,075,08,19,48,119,23,20,11,280,24*7D
$GPGSV,3,3,10,24,64,294,31,28,19,056,*70
$GPGLL,4921.12308,N,01751.01988,E,145633.00,A,A*63
$GPRMC,145634.00,A,4921.12292,N,01751.01938,E,0.327,,290119,,,A*70
$GPVTG,,T,,M,0.327,N,0.605,K,A*26
$GPGGA,145634.00,4921.12292,N,01751.01938,E,1,08,1.41,405.1,M,41.4,M,,*55
$GPGSA,A,3,24,15,19,17,13,12,10,20,,,,,2.35,1.41,1.88*0D
$GPGSV,3,1,10,01,07,029,,10,15,307,19,12,31,237,26,13,32,165,30*7F
$GPGSV,3,2,10,15,50,209,30,17,46,075,11,19,48,119,23,20,11,280,25*75
$GPGSV,3,3,10,24,64,294,32,28,19,056,*73
$GPGLL,4921.12292,N,01751.01938,E,145634.00,A,A*6D
$GPRMC,145635.00,A,4921.12287,N,01751.01875,E,0.416,,290119,,,A*78
$GPVTG,,T,,M,0.416,N,0.770,K,A*20
$GPGGA,145635.00,4921.12287,N,01751.01875,E,1,08,1.41,405.0,M,41.4,M,,*59
$GPGSA,A,3,24,15,19,17,13,12,10,20,,,,,2.35,1.41,1.88*0D
$GPGSV,3,1,10,01,07,029,,10,15,307,19,12,31,237,26,13,32,165,30*7F
$GPGSV,3,2,10,15,50,209,31,17,46,075,13,19,48,119,24,20,11,280,25*71
$GPGSV,3,3,10,24,64,294,32,28,19,056,*73
$GPGLL,4921.12287,N,01751.01875,E,145635.00,A,A*60
$GPRMC,145636.00,A,4921.12269,N,01751.01836,E,0.385,,290119,,,A*71
$GPVTG,,T,,M,0.385,N,0.713,K,A*28
$GPGGA,145636.00,4921.12269,N,01751.01836,E,1,08,1.41,404.8,M,41.4,M,,*54
$GPGSA,A,3,24,15,19,17,13,12,10,20,,,,,2.35,1.41,1.88*0D
$GPGSV,3,1,10,01,07,029,,10,15,307,18,12,31,237,26,13,32,165,30*7E
$GPGSV,3,2,10,15,50,209,31,17,46,075,13,19,48,119,23,20,11,280,25*76
$GPGSV,3,3,10,24,64,294,32,28,19,056,*73
$GPGLL,4921.12269,N,01751.01836,E,145636.00,A,A*64
$GPRMC,145637.00,A,4921.12285,N,01751.01891,E,0.813,,290119,,,A*7B
$GPVTG,,T,,M,0.813,N,1.506,K,A*2B
$GPGGA,145637.00,4921.12285,N,01751.01891,E,1,08,1.13,404.4,M,41.4,M,,*51
$GPGSA,A,3,24,15,19,17,13,12,10,20,,,,,2.18,1.13,1.87*0A
$GPGSV,3,1,10,01,07,029,,10,15,307,18,12,31,237,26,13,32,165,30*7E
$GPGSV,3,2,10,15,50,209,30,17,46,075,14,19,48,119,23,20,11,280,24*71
$GPGSV,3,3,10,24,64,294,31,28,19,056,*70
$GPGLL,4921.12285,N,01751.01891,E,145637.00,A,A*6A
$GPRMC,145638.00,A,4921.12294,N,01751.01902,E,0.211,,290119,,,A*77
$GPVTG,,T,,M,0.211,N,0.390,K,A*2B
$GPGGA,145638.00,4921.12294,N,01751.01902,E,1,08,1.13,404.5,M,41.4,M,,*54
$GPGSA,A,3,24,15,19,17,13,12,10,20,,,,,2.18,1.13,1.87*0A
$GPGSV,3,1,10,01,07,029,,10,15,307,17,12,31,237,26,13,32,165,30*71
$GPGSV,3,2,10,15,50,209,31,17,46,075,14,19,48,119,23,20,11,280,25*71
$GPGSV,3,3,10,24,64,294,31,28,19,056,*70
$GPGLL,4921.12294,N,01751.01902,E,145638.00,A,A*6E
$GPRMC,145639.00,A,4921.12302,N,01751.01929,E,0.268,,290119,,,A*7F
$GPVTG,,T,,M,0.268,N,0.496,K,A*24
$GPGGA,145639.00,4921.12302,N,01751.01929,E,1,08,1.13,404.4,M,41.4,M,,*53
$GPGSA,A,3,24,15,19,17,13,12,10,20,,,,,2.18,1.13,1.87*0A
$GPGSV,3,1,10,01,07,029,,10,15,307,16,12,31,237,25,13,32,165,30*73
$GPGSV,3,2,10,15,50,209,31,17,46,075,14,19,48,119,23,20,11,280,25*71
$GPGSV,3,3,10,24,64,294,31,28,19,056,*70
$GPGLL,4921.12302,N,01751.01929,E,145639.00,A,A*68
$GPRMC,145640.00,A,4921.12294,N,01751.01956,E,0.562,,290119,,,A*7A
$GPVTG,,T,,M,0.562,N,1.041,K,A*26
$GPGGA,145640.00,4921.12294,N,01751.01956,E,1,08,1.13,404.6,M,41.4,M,,*59
$GPGSA,A,3,24,15,19,17,13,12,10,20,,,,,2.18,1.13,1.87*0A
$GPGSV,3,1,10,01,07,029,,10,15,307,16,12,31,237,25,13,32,165,30*73
$GPGSV,3,2,10,15,50,209,31,17,46,075,13,19,48,119,22,20,11,280,25*77
$GPGSV,3,3,10,24,64,294,32,28,19,056,*73
$GPGLL,4921.12294,N,01751.01956,E,145640.00,A,A*60
$GPRMC,145641.00,A,4921.12291,N,01751.01957,E,0.146,,290119,,,A*7D
$GPVTG,,T,,M,0.146,N,0.270,K,A*25
$GPGGA,145641.00,4921.12291,N,01751.01957,E,1,08,1.13,404.5,M,41.4,M,,*5F
$GPGSA,A,3,24,15,19,17,13,12,10,20,,,,,2.18,1.13,1.87*0A
$GPGSV,3,1,10,01,07,029,,10,15,307,17,12,31,237,25,13,32,165,30*72
$GPGSV,3,2,10,15,50,209,31,17,46,075,13,19,48,119,22,20,11,280,24*76
$GPGSV,3,3,10,24,64,294,32,28,19,056,*73
$GPGLL,4921.12291,N,01751.01957,E,145641.00,A,A*65
$GPRMC,145642.00,A,4921.12283,N,01751.01905,E,0.989,,290119,,,A*71
$GPVTG,,T,,M,0.989,N,1.832,K,A*23
$GPGGA,145642.00,4921.12283,N,01751.01905,E,1,08,1.13,404.3,M,41.4,M,,*5E
$GPGSA,A,3,24,15,19,17,13,12,10,20,,,,,2.18,1.13,1.87*0A
$GPGSV,3,1,10,01,07,029,,10,15,307,17,12,31,237,25,13,32,165,30*72
$GPGSV,3,2,10,15,50,209,31,17,46,075,14,19,48,119,22,20,11,280,25*70
$GPGSV,3,3,10,24,64,294,32,28,19,056,*73
$GPGLL,4921.12283,N,01751.01905,E,145642.00,A,A*62
$GPRMC,145643.00,A,4921.12286,N,01751.01891,E,0.239,,290119,,,A*79
$GPVTG,,T,,M,0.239,N,0.443,K,A*28
$GPGGA,145643.00,4921.12286,N,01751.01891,E,1,08,1.13,403.7,M,41.4,M,,*55
$GPGSA,A,3,24,15,19,17,13,12,10,20,,,,,2.18,1.13,1.87*0A
$GPGSV,3,1,10,01,07,029,,10,15,307,18,12,31,237,24,13,32,165,30*7C
$GPGSV,3,2,10,15,50,209,31,17,46,075,13,19,48,119,22,20,11,280,25*77
$GPGSV,3,3,10,24,64,294,32,28,19,056,*73
$GPGLL,4921.12286,N,01751.01891,E,145643.00,A,A*6A
$GPRMC,145644.00,A,4921.12290,N,01751.01900,E,0.442,,290119,,,A*7A
$GPVTG,,T,,M,0.442,N,0.819,K,A*21
$GPGGA,145644.00,4921.12290,N,01751.01900,E,1,08,1.13,403.3,M,41.4,M,,*58
$GPGSA,A,3,24,15,19,17,13,12,10,20,,,,,2.18,1.13,1.87*0A
$GPGSV,3,1,10,01,07,029,,10,15,307,17,12,31,237,23,13,32,165,29*7C
$GPGSV,3,2,10,15,50,209,31,17,46,075,13,19,48,119,22,20,11,280,25*77
$GPGSV,3,3,10,24,64,294,32,28,19,056,*73
$GPGLL,4921.12290,N,01751.01900,E,145644.00,A,A*63
$GPRMC,145645.00,A,4921.12287,N,01751.01865,E,0.605,,290119,,,A*7E
$GPVTG,,T,,M,0.605,N,1.121,K,A*23
$GPGGA,145645.00,4921.12287,N,01751.01865,E,1,08,1.13,402.9,M,41.4,M,,*56
$GPGSA,A,3,24,15,19,17,13,12,10,20,,,,,2.18,1.13,1.87*0A
$GPGSV,3,1,10,01,07,029,,10,15,307,16,12,31,237,22,13,32,165,29*7C
$GPGSV,3,2,10,15,50,209,31,17,46,075,13,19,48,119,21,20,11,280,25*74
$GPGSV,3,3,10,24,64,294,32,28,19,056,*73
$GPGLL,4921.12287,N,01751.01865,E,145645.00,A,A*66
$GPRMC,145646.00,A,4921.12287,N,01751.01876,E,0.322,,290119,,,A*7F
$GPVTG,,T,,M,0.322,N,0.597,K,A*2B
$GPGGA,145646.00,4921.12287,N,01751.01876,E,1,08,1.13,402.6,M,41.4,M,,*58
$GPGSA,A,3,24,15,19,17,13,12,10,20,,,,,2.18,1.13,1.87*0A
$GPGSV,3,1,10,01,07,029,,10,15,307,16,12,31,237,22,13,32,165,29*7C
$GPGSV,3,2,10,15,50,209,31,17,46,075,14,19,48,119,21,20,11,280,25*73
$GPGSV,3,3,10,24,64,294,32,28,19,056,*73
$GPGLL,4921.12287,N,01751.01876,E,145646.00,A,A*67
$GPRMC,145647.00,A,4921.12281,N,01751.01887,E,0.263,,290119,,,A*72
$GPVTG,,T,,M,0.263,N,0.487,K,A*2F
$GPGGA,145647.00,4921.12281,N,01751.01887,E,1,08,1.13,403.0,M,41.4,M,,*56
$GPGSA,A,3,24,15,19,17,13,12,10,20,,,,,2.18,1.13,1.87*0A
$GPGSV,3,1,10,01,07,029,,10,15,307,17,12,31,237,22,13,32,165,29*7D
$GPGSV,3,2,10,15,50,209,31,17,46,075,13,19,48,119,21,20,11,280,25*74
$GPGSV,3,3,10,24,65,294,32,28,19,056,*72
$GPGLL,4921.12281,N,01751.01887,E,145647.00,A,A*6E
$GPRMC,145648.00,A,4921.12281,N,01751.01918,E,0.680,,290119,,,A*73
$GPVTG,,T,,M,0.680,N,1.259,K,A*22
$GPGGA,145648.00,4921.12281,N,01751.01918,E,1,08,1.13,402.9,M,41.4,M,,*56
$GPGSA,A,3,24,15,19,17,13,12,10,20,,,,,2.18,1.13,1.87*0A
$GPGSV,3,1,10,01,07,029,,10,15,307,17,12,31,237,21,13,32,165,29*7E
$GPGSV,3,2,10,15,50,209,31,17,46,075,13,19,48,119,22,20,11,280,25*77
$GPGSV,3,3,10,24,65,294,32,28,19,056,*72
$GPGLL,4921.12281,N,01751.01918,E,145648.00,A,A*66
$GPRMC,145649.00,A,4921.12281,N,01751.01895,E,0.336,,290119,,,A*7E
$GPVTG,,T,,M,0.336,N,0.623,K,A*22
$GPGGA,145649.00,4921.12281,N,01751.01895,E,1,08,1.13,402.5,M,41.4,M,,*5F
$GPGSA,A,3,24,15,19,17,13,12,10,20,,,,,2.18,1.13,1.87*0A
$GPGSV,3,1,10,01,07,029,,10,15,307,18,12,31,237,21,13,32,165,29*71
$GPGSV,3,2,10,15,50,209,32,17,46,075,13,19,48,119,21,20,11,280,25*77
$GPGSV,3,3,10,24,65,294,32,28,19,056,*72
$GPGLL,4921.12281,N,01751.01895,E,145649.00,A,A*63
$GPRMC,145650.00,A,4921.12290,N,01751.01911,E,0.465,,290119,,,A*7A
$GPVTG,,T,,M,0.465,N,0.861,K,A*2B
$GPGGA,145650.00,4921.12290,N,01751.01911,E,1,08,1.13,402.2,M,41.4,M,,*5D
$GPGSA,A,3,24,15,19,17,13,12,10,20,,,,,2.18,1.13,1.87*0A
$GPGSV,3,1,10,01,07,029,,10,15,307,18,12,31,237,20,13,32,165,29*70
$GPGSV,3,2,10,15,50,209,32,17,46,075,15,19,48,119,21,20,11,280,25*71
$GPGSV,3,3,10,24,65,294,32,28,19,056,*72
$GPGLL,4921.12290,N,01751.01911,E,145650.00,A,A*66
$GPRMC,145651.00,A,4921.12298,N,01751.01912,E,0.249,,290119,,,A*78
$GPVTG,,T,,M,0.249,N,0.462,K,A*2C
$GPGGA,145651.00,4921.12298,N,01751.01912,E,1,08,1.13,402.0,M,41.4,M,,*55
$GPGSA,A,3,24,15,19,17,13,12,10,20,,,,,2.18,1.13,1.87*0A
$GPGSV,3,1,10,01,07,029,,10,15,307,18,12,31,237,19,13,32,165,29*7A
$GPGSV,3,2,10,15,50,209,32,17,46,075,15,19,48,119,21,20,11,280,25*71
$GPGSV,3,3,10,24,65,294,32,28,19,057,*73
$GPGLL,4921.12298,N,01751.01912,E,145651.00,A,A*6C
$GPRMC,145652.00,A,4921.12312,N,01751.01921,E,0.379,,290119,,,A*7A
$GPVTG,,T,,M,0.379,N,0.702,K,A*2B
$GPGGA,145652.00,4921.12312,N,01751.01921,E,1,08,1.13,401.4,M,41.4,M,,*52
$GPGSA,A,3,24,15,19,17,13,12,10,20,,,,,2.18,1.13,1.87*0A
$GPGSV,3,1,10,01,07,029,,10,15,307,19,12,31,237,19,13,32,165,29*7B
$GPGSV,3,2,10,15,50,209,32,17,46,075,16,19,48,119,21,20,11,280,24*73
$GPGSV,3,3,10,24,65,294,32,28,19,057,*73
$GPGLL,4921.12312,N,01751.01921,E,145652.00,A,A*6C
$GPRMC,145653.00,A,4921.12307,N,01751.01883,E,0.510,,290119,,,A*7F
$GPVTG,,T,,M,0.510,N,0.944,K,A*2E
$GPGGA,145653.00,4921.12307,N,01751.01883,E,1,08,1.13,401.8,M,41.4,M,,*52
$GPGSA,A,3,24,15,19,17,13,12,10,20,,,,,2.18,1.13,1.87*0A
$GPGSV,3,1,10,01,07,029,,10,15,307,18,12,31,237,18,13,32,165,29*7B
$GPGSV,3,2,10,15,50,209,33,17,46,075,17,19,48,119,20,20,11,280,25*73
$GPGSV,3,3,10,24,65,294,32,28,19,057,*73
$GPGLL,4921.12307,N,01751.01883,E,145653.00,A,A*60
$GPRMC,145654.00,A,4921.12315,N,01751.01888,E,0.166,,290119,,,A*75
$GPVTG,,T,,M,0.166,N,0.307,K,A*26
$GPGGA,145654.00,4921.12315,N,01751.01888,E,1,08,1.13,401.3,M,41.4,M,,*56
$GPGSA,A,3,24,15,19,17,13,12,10,20,,,,,2.18,1.13,1.87*0A
$GPGSV,3,1,10,01,07,029,,10,15,307,18,12,31,237,18,13,32,165,29*7B
$GPGSV,3,2,10,15,50,209,32,17,46,075,18,19,48,119,20,20,11,280,25*7D
$GPGSV,3,3,10,24,65,294,32,28,19,057,*73
$GPGLL,4921.12315,N,01751.01888,E,145654.00,A,A*6F
$GPRMC,145655.00,A,4921.12320,N,01751.01903,E,0.312,,290119,,,A*71
$GPVTG,,T,,M,0.312,N,0.577,K,A*26
$GPGGA,145655.00,4921.12320,N,01751.01903,E,1,08,1.13,401.1,M,41.4,M,,*51
$GPGSA,A,3,24,15,19,17,13,12,10,20,,,,,2.18,1.13,1.87*0A
$GPGSV,3,1,10,01,07,029,,10,15,307,18,12,31,237,19,13,32,165,29*7A
$GPGSV,3,2,10,15,50,209,33,17,46,075,17,19,48,119,20,20,11,280,25*73
$GPGSV,3,3,10,24,65,294,32,28,19,057,*73
$GPGLL,4921.12320,N,01751.01903,E,145655.00,A,A*6A
$GPRMC,145656.00,A,4921.12309,N,01751.01891,E,0.252,,290119,,,A*76
$GPVTG,,T,,M,0.252,N,0.467,K,A*23
$GPGGA,145656.00,4921.12309,N,01751.01891,E,1,08,1.13,401.6,M,41.4,M,,*54
$GPGSA,A,3,24,15,19,17,13,12,10,20,,,,,2.18,1.13,1.87*0A
$GPGSV,3,1,10,01,07,029,,10,15,307,18,12,31,237,19,13,32,165,30*72
$GPGSV,3,2,10,15,50,209,33,17,46,075,18,19,48,119,19,20,11,280,25*76
$GPGSV,3,3,10,24,65,294,32,28,19,057,*73
$GPGLL,4921.12309,N,01751.01891,E,145656.00,A,A*68
$GPRMC,145657.00,A,4921.12317,N,01751.01897,E,0.212,,290119,,,A*7A
$GPVTG,,T,,M,0.212,N,0.393,K,A*2B
$GPGGA,145657.00,4921.12317,N,01751.01897,E,1,08,1.13,401.0,M,41.4,M,,*5A
$GPGSA,A,3,24,15,19,17,13,12,10,20,,,,,2.18,1.13,1.87*0A
$GPGSV,3,1,10,01,07,029,,10,15,307,18,12,31,237,19,13,32,165,29*7A
$GPGSV,3,2,10,15,50,209,33,17,46,075,17,19,48,119,19,20,11,280,25*79
$GPGSV,3,3,10,24,65,294,32,28,19,057,*73
$GPGLL,4921.12317,N,01751.01897,E,145657.00,A,A*60
$GPRMC,145658.00,A,4921.12318,N,01751.01888,E,0.266,,290119,,,A*77
$GPVTG,,T,,M,0.266,N,0.493,K,A*2F
$GPGGA,145658.00,4921.12318,N,01751.01888,E,1,08,1.13,400.9,M,41.4,M,,*5C
$GPGSA,A,3,24,15,19,17,13,12,10,20,,,,,2.18,1.13,1.87*0A
$GPGSV,3,1,10,01,07,029,,10,15,307,18,12,31,237,18,13,32,165,29*7B
$GPGSV,3,2,10,15,50,209,33,17,46,075,16,19,48,119,19,20,11,280,24*79
$GPGSV,3,3,10,24,65,294,32,28,19,057,*73
$GPGLL,4921.12318,N,01751.01888,E,145658.00,A,A*6E
$GPRMC,145659.00,A,4921.12316,N,01751.01882,E,0.295,,290119,,,A*7E
$GPVTG,,T,,M,0.295,N,0.546,K,A*2A
$GPGGA,145659.00,4921.12316,N,01751.01882,E,1,08,1.13,400.9,M,41.4,M,,*59
$GPGSA,A,3,24,15,19,17,13,12,10,20,,,,,2.18,1.13,1.87*0A
$GPGSV,3,1,10,01,07,029,,10,15,307,19,12,31,237,17,13,32,165,30*7D
$GPGSV,3,2,10,15,50,209,33,17,46,075,14,19,48,119,20,20,11,280,24*71
$GPGSV,3,3,10,24,65,294,33,28,19,057,*72
$GPGLL,4921.12316,N,01751.01882,E,145659.00,A,A*6B
$GPRMC,145700.00,A,4921.12320,N,01751.01913,E,0.542,,290119,,,A*72
$GPVTG,,T,,M,0.542,N,1.004,K,A*25
$GPGGA,145700.00,4921.12320,N,01751.01913,E,1,08,1.13,401.1,M,41.4,M,,*51
$GPGSA,A,3,24,15,19,17,13,12,10,20,,,,,2.18,1.13,1.87*0A
$GPGSV,3,1,10,01,07,029,,10,15,307,19,12,31,237,17,13,32,165,30*7D
$GPGSV,3,2,10,15,50,209,33,17,46,075,14,19,48,119,21,20,11,280,24*70
$GPGSV,3,3,10,24,65,294,33,28,19,057,*72
$GPGLL,4921.12320,N,01751.01913,E,145700.00,A,A*6A
$GPRMC,145701.00,A,4921.12337,N,01751.01924,E,0.735,,290119,,,A*73
$GPVTG,,T,,M,0.735,N,1.361,K,A*27
$GPGGA,145701.00,4921.12337,N,01751.01924,E,1,09,1.13,400.0,M,41.4,M,,*53
$GPGSA,A,3,24,15,19,17,13,12,10,20,01,,,,2.18,1.13,1.87*0B
$GPGSV,3,1,10,01,07,029,15,10,15,307,19,12,31,237,17,13,32,165,29*71
$GPGSV,3,2,10,15,50,209,33,17,46,075,13,19,48,119,21,20,11,280,24*77
$GPGSV,3,3,10,24,65,294,31,28,19,057,*70
$GPGLL,4921.12337,N,01751.01924,E,145701.00,A,A*69
$GPRMC,145702.00,A,4921.12356,N,01751.01985,E,1.627,,290119,,,A*7F
$GPVTG,,T,,M,1.627,N,3.013,K,A*20
$GPGGA,145702.00,4921.12356,N,01751.01985,E,1,09,1.12,400.0,M,41.4,M,,*5D
$GPGSA,A,3,24,15,19,17,13,12,10,20,01,,,,2.18,1.12,1.87*0A
$GPGSV,3,1,10,01,07,029,14,10,15,307,18,12,31,237,16,13,32,165,29*70
$GPGSV,3,2,10,15,50,209,32,17,46,075,12,19,48,119,20,20,11,280,24*76
$GPGSV,3,3,10,24,65,294,32,28,19,057,*73
$GPGLL,4921.12356,N,01751.01985,E,145702.00,A,A*66
$GPRMC,145703.00,A,4921.12354,N,01751.01981,E,0.318,,290119,,,A*70
$GPVTG,,T,,M,0.318,N,0.589,K,A*2D
$GPGGA,145703.00,4921.12354,N,01751.01981,E,1,09,1.12,400.3,M,41.4,M,,*59
$GPGSA,A,3,24,15,19,17,13,12,10,20,01,,,,2.18,1.12,1.87*0A
$GPGSV,3,1,10,01,07,029,12,10,15,307,17,12,31,237,14,13,32,165,30*73
$GPGSV,3,2,10,15,50,209,33,17,46,075,11,19,48,119,21,20,11,280,24*75
$GPGSV,3,3,10,24,65,294,33,28,19,057,*72
$GPGLL,4921.12354,N,01751.01981,E,145703.00,A,A*61
$GPRMC,145704.00,A,4921.12361,N,01751.01961,E,0.290,,290119,,,A*7E
$GPVTG,,T,,M,0.290,N,0.538,K,A*26
$GPGGA,145704.00,4921.12361,N,01751.01961,E,1,08,1.41,399.6,M,41.4,M,,*53
$GPGSA,A,3,24,15,19,13,12,10,20,01,,,,,2.35,1.41,1.87*05
$GPGSV,3,1,10,01,07,029,10,10,15,307,18,12,31,237,15,13,32,165,30*7F
$GPGSV,3,2,10,15,50,209,33,17,46,075,,19,48,119,21,20,11,280,23*72
$GPGSV,3,3,10,24,65,294,33,28,19,057,*72
$GPGLL,4921.12361,N,01751.01961,E,145704.00,A,A*6E
$GPRMC,145705.00,A,4921.12367,N,01751.02002,E,1.195,,290119,,,A*71
$GPVTG,,T,,M,1.195,N,2.212,K,A*2C
$GPGGA,145705.00,4921.12367,N,01751.02002,E,1,09,1.41,399.9,M,41.4,M,,*55
$GPGSA,A,3,24,15,19,13,12,28,10,20,01,,,,2.35,1.41,1.87*0F
$GPGSV,3,1,10,01,07,029,10,10,15,307,17,12,31,237,15,13,32,165,30*70
$GPGSV,3,2,10,15,50,209,33,17,46,075,,19,48,119,22,20,11,280,24*76
$GPGSV,3,3,10,24,65,294,33,28,19,057,17*74
$GPGLL,4921.12367,N,01751.02002,E,145705.00,A,A*66
$GPRMC,145706.00,A,4921.12382,N,01751.02069,E,1.689,58.84,290119,,,A*51
$GPVTG,58.84,T,,M,1.689,N,3.128,K,A*02
$GPGGA,145706.00,4921.12382,N,01751.02069,E,1,08,1.41,399.7,M,41.4,M,,*5F
$GPGSA,A,3,24,15,19,13,12,28,10,20,,,,,2.35,1.41,1.87*0E
$GPGSV,3,1,10,01,07,029,08,10,15,307,17,12,31,237,12,13,32,165,29*76
$GPGSV,3,2,10,15,50,209,32,17,46,075,,19,48,119,21,20,11,280,23*73
$GPGSV,3,3,10,24,65,294,32,28,19,057,15*77
$GPGLL,4921.12382,N,01751.02069,E,145706.00,A,A*63
$GPRMC,145707.00,A,4921.12381,N,01751.02093,E,0.829,,290119,,,A*7C
$GPVTG,,T,,M,0.829,N,1.536,K,A*21
$GPGGA,145707.00,4921.12381,N,01751.02093,E,1,09,1.41,399.9,M,41.4,M,,*57
$GPGSA,A,3,24,15,19,17,13,12,28,10,20,,,,2.35,1.41,1.87*08
$GPGSV,3,1,10,01,07,029,08,10,15,307,15,12,31,237,10,13,32,165,30*7E
$GPGSV,3,2,10,15,50,209,32,17,46,075,11,19,48,119,21,20,11,280,23*73
$GPGSV,3,3,10,24,65,294,32,28,19,057,11*73
$GPGLL,4921.12381,N,01751.02093,E,145707.00,A,A*64
$GPRMC,145708.00,A,4921.12386,N,01751.02113,E,1.164,,290119,,,A*7C
$GPVTG,,T,,M,1.164,N,2.156,K,A*21
$GPGGA,145708.00,4921.12386,N,01751.02113,E,1,08,1.41,399.6,M,41.4,M,,*58
$GPGSA,A,3,24,15,19,13,12,28,10,20,,,,,2.35,1.41,1.87*0E
$GPGSV,3,1,10,01,07,029,08,10,15,307,15,12,31,237,11,13,32,165,29*77
$GPGSV,3,2,10,15,50,209,32,17,46,075,09,19,48,119,20,20,11,280,23*7B
$GPGSV,3,3,10,24,65,294,32,28,19,057,10*72
$GPGLL,4921.12386,N,01751.02113,E,145708.00,A,A*65
$GPRMC,145709.00,A,4921.12386,N,01751.02080,E,0.367,,290119,,,A*76
$GPVTG,,T,,M,0.367,N,0.679,K,A*29
$GPGGA,145709.00,4921.12386,N,01751.02080,E,1,09,1.41,399.1,M,41.4,M,,*54
$GPGSA,A,3,24,15,19,17,13,12,28,10,20,,,,2.35,1.41,1.87*08
$GPGSV,3,1,10,01,07,029,09,10,15,307,14,12,31,237,12,13,32,165,29*74
$GPGSV,3,2,10,15,50,209,30,17,46,075,10,19,48,119,21,20,11,280,24*77
$GPGSV,3,3,10,24,65,294,30,28,19,057,11*71
$GPGLL,4921.12386,N,01751.02080,E,145709.00,A,A*6F
$GPRMC,145710.00,A,4921.12405,N,01751.02113,E,1.230,,290119,,,A*7B
$GPVTG,,T,,M,1.230,N,2.278,K,A*2C
$GPGGA,145710.00,4921.12405,N,01751.02113,E,1,10,1.41,398.9,M,41.4,M,,*5A
$GPGSA,A,3,24,15,19,17,13,12,28,10,20,01,,,2.35,1.41,1.87*09
$GPGSV,3,1,10,01,07,029,12,10,15,307,14,12,31,237,12,13,32,165,30*76
$GPGSV,3,2,10,15,50,209,31,17,46,075,13,19,48,119,21,20,11,280,23*72
$GPGSV,3,3,10,24,65,294,31,28,19,057,14*75
$GPGLL,4921.12405,N,01751.02113,E,145710.00,A,A*60
$GPRMC,145711.00,A,4921.12424,N,01751.02110,E,0.593,,290119,,,A*75
$GPVTG,,T,,M,0.593,N,1.098,K,A*2C
$GPGGA,145711.00,4921.12424,N,01751.02110,E,1,10,1.41,397.6,M,41.4,M,,*5B
$GPGSA,A,3,24,15,19,17,13,12,28,10,20,01,,,2.35,1.41,1.87*09
$GPGSV,3,1,10,01,07,029,12,10,15,307,13,12,31,237,12,13,32,165,30*71
$GPGSV,3,2,10,15,50,209,31,17,46,075,14,19,48,119,22,20,11,280,23*76
$GPGSV,3,3,10,24,65,294,32,28,19,057,14*76
$GPGLL,4921.12424,N,01751.02110,E,145711.00,A,A*61
$GPRMC,145712.00,A,4921.12430,N,01751.02045,E,0.777,,290119,,,A*7A
$GPVTG,,T,,M,0.777,N,1.439,K,A*2B
$GPGGA,145712.00,4921.12430,N,01751.02045,E,1,10,1.41,396.3,M,41.4,M,,*58
$GPGSA,A,3,24,15,19,17,13,12,28,10,20,01,,,2.35,1.41,1.87*09
$GPGSV,3,1,10,01,07,029,12,10,15,307,11,12,31,237,12,13,32,165,30*73
$GPGSV,3,2,10,15,50,209,32,17,46,075,14,19,48,119,21,20,11,280,23*76
$GPGSV,3,3,10,24,65,294,32,28,19,057,14*76
$GPGLL,4921.12430,N,01751.02045,E,145712.00,A,A*66
$GPRMC,145713.00,A,4921.12421,N,01751.02001,E,0.365,,290119,,,A*7C
$GPVTG,,T,,M,0.365,N,0.676,K,A*24
$GPGGA,145713.00,4921.12421,N,01751.02001,E,1,10,1.41,396.4,M,41.4,M,,*5E
$GPGSA,A,3,24,15,19,17,13,12,28,10,20,01,,,2.35,1.41,1.87*09
$GPGSV,3,1,10,01,07,029,12,10,15,307,10,12,31,237,14,13,32,165,30*74
$GPGSV,3,2,10,15,50,209,32,17,46,075,14,19,48,119,22,20,11,280,24*72
$GPGSV,3,3,10,24,65,294,32,28,19,057,14*76
$GPGLL,4921.12421,N,01751.02001,E,145713.00,A,A*67
$GPRMC,145714.00,A,4921.12422,N,01751.01971,E,0.398,,290119,,,A*77
$GPVTG,,T,,M,0.398,N,0.738,K,A*2D
$GPGGA,145714.00,4921.12422,N,01751.01971,E,1,09,1.67,395.6,M,41.4,M,,*5A
$GPGSA,A,3,24,15,19,17,13,12,28,20,01,,,,2.66,1.67,2.08*0E
$GPGSV,3,1,10,01,07,029,07,10,15,307,09,12,31,237,16,13,32,165,31*7B
$GPGSV,3,2,10,15,50,209,32,17,46,075,08,19,48,119,22,20,11,280,25*7E
$GPGSV,3,3,10,24,65,294,32,28,19,057,07*74
$GPGLL,4921.12422,N,01751.01971,E,145714.00,A,A*6E
$GPRMC,145715.00,A,4921.12404,N,01751.01961,E,0.275,,290119,,,A*71
$GPVTG,,T,,M,0.275,N,0.509,K,A*2F
$GPGGA,145715.00,4921.12404,N,01751.01961,E,1,10,1.41,396.2,M,41.4,M,,*55
$GPGSA,A,3,24,15,19,17,13,12,28,10,20,01,,,2.35,1.41,1.87*09
$GPGSV,3,1,10,01,07,029,07,10,15,307,10,12,31,237,17,13,32,165,31*72
$GPGSV,3,2,10,15,50,209,32,17,46,075,08,19,48,119,22,20,11,280,25*7E
$GPGSV,3,3,10,24,65,294,32,28,19,057,07*74
$GPGLL,4921.12404,N,01751.01961,E,145715.00,A,A*6A
$GPRMC,145716.00,A,4921.12400,N,01751.01962,E,0.605,,290119,,,A*76
$GPVTG,,T,,M,0.605,N,1.120,K,A*22
$GPGGA,145716.00,4921.12400,N,01751.01962,E,1,08,1.41,395.9,M,41.4,M,,*50
$GPGSA,A,3,24,15,19,13,12,10,20,01,,,,,2.35,1.41,1.87*05
$GPGSV,3,1,10,01,07,029,07,10,15,307,12,12,31,237,18,13,32,165,31*7F
$GPGSV,3,2,10,15,50,209,32,17,46,075,,19,48,119,22,20,11,280,25*76
$GPGSV,3,3,10,24,65,294,32,28,19,057,*73
$GPGLL,4921.12400,N,01751.01962,E,145716.00,A,A*6E
$GPRMC,145717.00,A,4921.12398,N,01751.01973,E,0.600,,290119,,,A*74
$GPVTG,,T,,M,0.600,N,1.112,K,A*26
$GPGGA,145717.00,4921.12398,N,01751.01973,E,1,08,1.41,395.5,M,41.4,M,,*5B
$GPGSA,A,3,24,15,19,13,12,28,10,20,,,,,2.35,1.41,1.87*0E
$GPGSV,3,1,10,01,07,029,06,10,15,307,12,12,31,237,17,13,32,165,31*71
$GPGSV,3,2,10,15,50,209,32,17,46,075,,19,48,119,22,20,11,280,25*76
$GPGSV,3,3,10,24,65,294,32,28,19,057,18*7A
$GPGLL,4921.12398,N,01751.01973,E,145717.00,A,A*69
$GPTXT,01,01,02,u-blox ag - www.u-blox.com*50
$GPTXT,01,01,02,HW  UBX-G60xx  00040007 FF7FFFFFp*53
$GPTXT,01,01,02,ROM CORE 7.03 (45969) Mar 17 2011 16:18:34*59
$GPTXT,01,01,02,ANTSUPERV=AC SD PDoS SR*20
$GPTXT,01,01,02,ANTSTATUS=DONTKNOW*33
$GPRMC,145718.01,V,,,,,,,290119,,,N*70
$GPVTG,,,,,,,,,N*30
$GPGGA,145718.01,,,,,0,00,99.99,,,,,,*69
$GPGSA,A,1,,,,,,,,,,,,,99.99,99.99,99.99*30
$GPGSV,3,1,10,01,07,028,,10,15,307,,12,31,237,,13,32,165,*71
$GPGSV,3,2,10,15,50,208,,17,46,075,,19,48,119,,20,11,279,*77
$GPGSV,3,3,10,24,65,294,,28,19,057,*72
$GPGLL,,,,,145718.01,V,N*45
$GPTXT,01,01,02,ANTSTATUS=INIT*25
$GPRMC,145719.00,V,,,,,,,290119,,,N*70
$GPVTG,,,,,,,,,N*30
$GPGGA,145719.00,,,,,0,05,4.07,,,,,,*5F
$GPGSA,A,1,24,15,19,13,20,,,,,,,,4.20,4.07,1.00*0E
$GPGSV,3,1,10,01,07,028,,10,15,307,,12,31,237,,13,32,165,30*72
$GPGSV,3,2,10,15,50,208,31,17,46,075,,19,48,119,22,20,11,279,22*75
$GPGSV,3,3,10,24,65,294,30,28,19,057,*71
$GPGLL,,,,,145719.00,V,N*45
$GPTXT,01,01,02,ANTSTATUS=OK*3B
$GPRMC,145720.00,V,,,,,,,290119,,,N*7A
$GPVTG,,,,,,,,,N*30
$GPGGA,145720.00,,,,,0,06,4.07,,,,,,*56
$GPGSA,A,1,24,15,19,13,12,20,,,,,,,4.19,4.07,1.00*07
$GPGSV,3,1,10,01,07,028,,10,15,307,,12,31,237,20,13,32,165,30*70
$GPGSV,3,2,10,15,50,208,31,17,46,075,,19,48,119,22,20,11,279,23*74
$GPGSV,3,3,10,24,65,294,31,28,19,057,*70
$GPGLL,,,,,145720.00,V,N*4F
$GPRMC,145721.00,A,4921.11879,N,01751.01183,E,0.591,,290119,,,A*7A
$GPVTG,,T,,M,0.591,N,1.094,K,A*22
$GPGGA,145721.00,4921.11879,N,01751.01183,E,1,06,1.95,397.0,M,41.4,M,,*5E
$GPGSA,A,3,24,15,19,13,12,20,,,,,,,2.86,1.95,2.10*09
$GPGSV,3,1,10,01,07,028,,10,15,307,,12,31,237,20,13,32,165,30*70
$GPGSV,3,2,10,15,50,208,32,17,46,075,,19,48,119,22,20,11,279,23*77
$GPGSV,3,3,10,24,65,294,31,28,19,057,*70
$GPGLL,4921.11879,N,01751.01183,E,145721.00,A,A*6C
$GPRMC,145722.00,A,4921.11707,N,01751.01325,E,0.584,,290119,,,A*75
$GPVTG,,T,,M,0.584,N,1.081,K,A*22
$GPGGA,145722.00,4921.11707,N,01751.01325,E,1,08,1.95,397.0,M,41.4,M,,*5B
$GPGSA,A,3,24,15,19,17,13,12,10,20,,,,,2.86,1.95,2.10*0E
$GPGSV,3,1,10,01,07,028,,10,15,307,24,12,31,237,19,13,32,165,30*7C
$GPGSV,3,2,10,15,50,208,32,17,46,075,22,19,48,119,22,20,11,279,23*77
$GPGSV,3,3,10,24,65,294,31,28,19,057,*70
$GPGLL,4921.11707,N,01751.01325,E,145722.00,A,A*67
$GPRMC,145723.00,A,4921.11919,N,01751.01455,E,0.567,,290119,,,A*78
$GPVTG,,T,,M,0.567,N,1.050,K,A*23
$GPGGA,145723.00,4921.11919,N,01751.01455,E,1,08,1.67,397.2,M,41.4,M,,*54
$GPGSA,A,3,24,15,19,17,13,12,10,20,,,,,2.66,1.67,2.08*04
$GPGSV,3,1,10,01,07,028,,10,15,307,21,12,31,237,19,13,32,165,31*78
$GPGSV,3,2,10,15,50,208,32,17,46,075,21,19,48,119,22,20,11,279,23*74
$GPGSV,3,3,10,24,65,294,31,28,19,057,*70
$GPGLL,4921.11919,N,01751.01455,E,145723.00,A,A*67
$GPRMC,145724.00,A,4921.12014,N,01751.01496,E,0.981,,290119,,,A*73
$GPVTG,,T,,M,0.981,N,1.817,K,A*2C
$GPGGA,145724.00,4921.12014,N,01751.01496,E,1,08,1.67,395.5,M,41.4,M,,*5E
$GPGSA,A,3,24,15,19,17,13,12,10,20,,,,,2.66,1.67,2.08*04
$GPGSV,3,1,10,01,07,028,,10,15,307,18,12,31,237,20,13,32,165,30*79
$GPGSV,3,2,10,15,50,208,32,17,46,075,19,19,48,119,21,20,11,279,22*7D
$GPGSV,3,3,10,24,65,294,30,28,19,057,*71
$GPGLL,4921.12014,N,01751.01496,E,145724.00,A,A*68
$GPRMC,145725.00,A,4921.11947,N,01751.01561,E,0.975,,290119,,,A*7C
$GPVTG,,T,,M,0.975,N,1.807,K,A*26
$GPGGA,145725.00,4921.11947,N,01751.01561,E,1,08,1.12,398.8,M,41.4,M,,*58
$GPGSA,A,3,24,15,19,17,13,12,10,20,,,,,2.17,1.12,1.86*05
$GPGSV,3,1,10,01,07,028,,10,15,307,19,12,31,237,20,13,32,165,31*79
$GPGSV,3,2,10,15,50,208,32,17,46,075,19,19,48,119,21,20,11,279,22*7D
$GPGSV,3,3,10,24,65,294,30,28,19,057,*71
$GPGLL,4921.11947,N,01751.01561,E,145725.00,A,A*6C
$GPRMC,145726.00,A,4921.11912,N,01751.01603,E,0.646,,290119,,,A*77
$GPVTG,,T,,M,0.646,N,1.196,K,A*28
$GPGGA,145726.00,4921.11912,N,01751.01603,E,1,08,1.12,400.4,M,41.4,M,,*56
$GPGSA,A,3,24,15,19,17,13,12,10,20,,,,,2.17,1.12,1.86*05
$GPGSV,3,1,10,01,07,028,,10,15,307,19,12,31,237,21,13,32,165,31*78
$GPGSV,3,2,10,15,50,208,33,17,46,075,19,19,48,119,21,20,11,279,23*7D
$GPGSV,3,3,10,24,65,294,30,28,19,057,06*77
$GPGLL,4921.11912,N,01751.01603,E,145726.00,A,A*68
$GPRMC,145727.00,A,4921.11875,N,01751.01655,E,0.228,,290119,,,A*79
$GPVTG,,T,,M,0.228,N,0.422,K,A*2F
$GPGGA,145727.00,4921.11875,N,01751.01655,E,1,08,1.12,400.7,M,41.4,M,,*57
$GPGSA,A,3,24,15,19,17,13,12,10,20,,,,,2.17,1.12,1.86*05
$GPGSV,3,1,10,01,07,028,,10,15,307,20,12,31,237,21,13,32,165,30*73
$GPGSV,3,2,10,15,50,208,33,17,46,075,19,19,48,119,20,20,11,279,22*7D
$GPGSV,3,3,10,24,65,294,30,28,19,057,07*76
$GPGLL,4921.11875,N,01751.01655,E,145727.00,A,A*6A
$GPRMC,145728.00,A,4921.11891,N,01751.01717,E,0.584,,290119,,,A*7A
$GPVTG,,T,,M,0.584,N,1.081,K,A*22
$GPGGA,145728.00,4921.11891,N,01751.01717,E,1,08,1.12,400.5,M,41.4,M,,*57
$GPGSA,A,3,24,15,19,17,13,12,10,20,,,,,2.17,1.12,1.86*05
$GPGSV,3,1,10,01,07,028,,10,15,307,20,12,31,237,21,13,31,165,31*71
$GPGSV,3,2,10,15,50,208,33,17,46,075,20,19,48,119,20,20,11,279,22*77
$GPGSV,3,3,10,24,65,294,29,28,19,057,*79
$GPGLL,4921.11891,N,01751.01717,E,145728.00,A,A*68
$GPRMC,145729.00,A,4921.11881,N,01751.01742,E,0.674,,290119,,,A*76
$GPVTG,,T,,M,0.674,N,1.249,K,A*28
$GPGGA,145729.00,4921.11881,N,01751.01742,E,1,08,1.12,400.5,M,41.4,M,,*57
$GPGSA,A,3,24,15,19,17,13,12,10,20,,,,,2.17,1.12,1.86*05
$GPGSV,3,1,10,01,07,028,,10,15,307,20,12,31,237,22,13,31,165,31*72
$GPGSV,3,2,10,15,50,208,33,17,46,075,20,19,48,119,20,20,11,279,22*77
$GPGSV,3,3,10,24,65,294,30,28,19,057,*71
$GPGLL,4921.11881,N,01751.01742,E,145729.00,A,A*68
$GPRMC,145730.00,A,4921.11882,N,01751.01801,E,0.671,,290119,,,A*70
$GPVTG,,T,,M,0.671,N,1.243,K,A*27
$GPGGA,145730.00,4921.11882,N,01751.01801,E,1,09,1.12,400.7,M,41.4,M,,*57
$GPGSA,A,3,24,15,19,17,13,12,28,10,20,,,,2.17,1.12,1.86*0F
$GPGSV,3,1,10,01,07,028,,10,15,307,20,12,31,237,23,13,31,165,32*70
$GPGSV,3,2,10,15,50,208,34,17,46,075,20,19,48,119,20,20,11,279,22*70
$GPGSV,3,3,10,24,65,294,30,28,19,057,15*75
$GPGLL,4921.11882,N,01751.01801,E,145730.00,A,A*6B
$GPRMC,145731.00,A,4921.11887,N,01751.01853,E,0.369,,290119,,,A*7F
$GPVTG,,T,,M,0.369,N,0.684,K,A*25
$GPGGA,145731.00,4921.11887,N,01751.01853,E,1,08,1.12,400.2,M,41.4,M,,*50
$GPGSA,A,3,24,15,19,17,13,12,10,20,,,,,2.17,1.12,1.86*05
$GPGSV,3,1,10,01,07,028,,10,15,307,20,12,31,237,24,13,31,165,32*77
$GPGSV,3,2,10,15,50,208,34,17,46,075,21,19,48,119,19,20,11,279,22*7B
$GPGSV,3,3,10,24,65,294,29,28,19,057,14*7C
$GPGLL,4921.11887,N,01751.01853,E,145731.00,A,A*68
$GPRMC,145732.00,A,4921.11918,N,01751.01908,E,0.472,,290119,,,A*79
$GPVTG,,T,,M,0.472,N,0.874,K,A*29
$GPGGA,145732.00,4921.11918,N,01751.01908,E,1,08,1.12,399.5,M,41.4,M,,*5B
$GPGSA,A,3,24,15,19,17,13,12,10,20,,,,,2.17,1.12,1.86*05
$GPGSV,3,1,10,01,07,028,,10,15,307,19,12,31,237,24,13,31,165,31*7E
$GPGSV,3,2,10,15,50,208,34,17,46,074,21,19,48,119,18,20,11,279,22*7B
$GPGSV,3,3,10,24,65,294,29,28,19,057,12*7A
$GPGLL,4921.11918,N,01751.01908,E,145732.00,A,A*63
$GPRMC,145733.00,A,4921.11962,N,01751.01971,E,1.335,,290119,,,A*7E
$GPVTG,,T,,M,1.335,N,2.473,K,A*25
$GPGGA,145733.00,4921.11962,N,01751.01971,E,1,09,1.12,398.8,M,41.4,M,,*54
$GPGSA,A,3,24,15,19,17,13,12,28,10,20,,,,2.17,1.12,1.86*0F
$GPGSV,3,1,10,01,07,028,,10,15,307,18,12,31,237,24,13,31,165,31*7F
$GPGSV,3,2,10,15,50,208,33,17,46,074,21,19,48,119,18,20,11,279,22*7C
$GPGSV,3,3,10,24,65,294,29,28,19,057,10*78
$GPGLL,4921.11962,N,01751.01971,E,145733.00,A,A*61
$GPRMC,145734.00,A,4921.12008,N,01751.02004,E,1.236,,290119,,,A*75
$GPVTG,,T,,M,1.236,N,2.290,K,A*2C
$GPGGA,145734.00,4921.12008,N,01751.02004,E,1,08,1.12,398.0,M,41.4,M,,*54
$GPGSA,A,3,24,15,19,17,13,12,10,20,,,,,2.17,1.12,1.86*05
$GPGSV,3,1,10,01,07,028,,10,15,307,18,12,31,237,25,13,31,165,31*7E
$GPGSV,3,2,10,15,50,208,32,17,46,074,21,19,48,118,17,20,11,279,22*73
$GPGSV,3,3,10,24,65,294,29,28,19,057,09*70
$GPGLL,4921.12008,N,01751.02004,E,145734.00,A,A*68
$GPRMC,145735.00,A,4921.12000,N,01751.01961,E,0.805,,290119,,,A*7E
$GPVTG,,T,,M,0.805,N,1.492,K,A*20
$GPGGA,145735.00,4921.12000,N,01751.01961,E,1,09,0.96,398.3,M,41.4,M,,*5B
$GPGSA,A,3,24,15,19,17,13,12,28,10,20,,,,1.88,0.96,1.62*0D
$GPGSV,3,1,10,01,07,028,,10,15,307,16,12,31,237,25,13,31,165,31*70
$GPGSV,3,2,10,15,50,208,33,17,46,074,22,19,48,118,17,20,11,279,22*71
$GPGSV,3,3,10,24,65,294,28,28,19,057,10*79
$GPGLL,4921.12000,N,01751.01961,E,145735.00,A,A*68
$GPRMC,145736.00,A,4921.11972,N,01751.01897,E,0.709,,290119,,,A*79
$GPVTG,,T,,M,0.709,N,1.312,K,A*2C
$GPGGA,145736.00,4921.11972,N,01751.01897,E,1,09,0.96,398.9,M,41.4,M,,*55
$GPGSA,A,3,24,15,19,17,13,12,28,10,20,,,,1.88,0.96,1.62*0D
$GPGSV,3,1,10,01,07,028,,10,15,307,15,12,31,237,25,13,31,165,31*73
$GPGSV,3,2,10,15,50,208,34,17,46,074,22,19,48,118,16,20,11,279,22*77
$GPGSV,3,3,10,24,65,294,28,28,19,057,12*7B
$GPGLL,4921.11972,N,01751.01897,E,145736.00,A,A*6C
$GPRMC,145737.00,A,4921.11969,N,01751.01826,E,1.134,,290119,,,A*71
$GPVTG,,T,,M,1.134,N,2.100,K,A*27
$GPGGA,145737.00,4921.11969,N,01751.01826,E,1,10,0.96,398.4,M,41.4,M,,*51
$GPGSA,A,3,24,15,19,17,13,12,28,10,20,01,,,1.88,0.96,1.62*0C
$GPGSV,3,1,10,01,07,028,16,10,15,307,15,12,31,237,26,13,31,165,32*74
$GPGSV,3,2,10,15,50,208,34,17,46,074,23,19,48,118,16,20,11,279,23*77
$GPGSV,3,3,10,24,65,294,27,28,19,057,13*75
$GPGLL,4921.11969,N,01751.01826,E,145737.00,A,A*6D
$GPRMC,145738.00,A,4921.11979,N,01751.01822,E,1.048,,290119,,,A*71
$GPVTG,,T,,M,1.048,N,1.940,K,A*22
$GPGGA,145738.00,4921.11979,N,01751.01822,E,1,09,0.96,398.4,M,41.4,M,,*53
$GPGSA,A,3,24,15,19,17,13,12,28,10,20,,,,1.88,0.96,1.62*0D
$GPGSV,3,1,10,01,07,028,14,10,15,307,15,12,31,237,26,13,31,165,32*76
$GPGSV,3,2,10,15,50,208,34,17,46,074,23,19,48,118,15,20,11,279,22*75
$GPGSV,3,3,10,24,65,294,27,28,19,057,09*7E
$GPGLL,4921.11979,N,01751.01822,E,145738.00,A,A*67
$GPTXT,01,01,02,u-blox ag - www.u-blox.com*50
$GPTXT,01,01,02,HW  UBX-G60xx  00040007 FF7FFFFFp*53
$GPTXT,01,01,02,ROM CORE 7.03 (45969) Mar 17 2011 16:18:34*59
$GPTXT,01,01,02,ANTSUPERV=AC SD PDoS SR*20
$GPTXT,01,01,02,ANTSTATUS=DONTKNOW*33
$GPRMC,145738.92,V,,,,,,,290119,,,N*78
$GPVTG,,,,,,,,,N*30
$GPGGA,145738.92,,,,,0,00,99.99,,,,,,*61
$GPGSA,A,1,,,,,,,,,,,,,99.99,99.99,99.99*30
$GPGSV,3,1,10,01,07,028,,10,15,307,,12,31,237,,13,31,165,*72
$GPGSV,3,2,10,15,50,208,,17,46,074,,19,48,118,,20,11,279,*77
$GPGSV,3,3,10,24,65,295,,28,19,057,*73
$GPGLL,,,,,145738.92,V,N*4D
$GPTXT,01,01,02,ANTSTATUS=INIT*25
$GPRMC,145740.00,V,,,,,,,290119,,,N*7C
$GPVTG,,,,,,,,,N*30
$GPGGA,145740.00,,,,,0,00,99.99,,,,,,*65
$GPGSA,A,1,,,,,,,,,,,,,99.99,99.99,99.99*30
$GPGSV,3,1,10,01,07,028,,10,15,307,,12,31,237,27,13,31,165,30*74
$GPGSV,3,2,10,15,50,208,33,17,46,074,22,19,48,118,,20,11,279,21*74
$GPGSV,3,3,10,24,65,295,26,28,19,057,*77
$GPGLL,,,,,145740.00,V,N*49
$GPRMC,145740.50,V,,,,,,,290119,,,N*79
$GPVTG,,,,,,,,,N*30
$GPGGA,145740.50,,,,,0,06,3.38,,,,,,*5E
$GPGSA,A,1,24,15,17,13,12,20,,,,,,,6.47,3.38,5.51*0B
$GPGSV,3,1,10,01,07,028,,10,15,307,,12,31,237,27,13,31,165,30*74
$GPGSV,3,2,10,15,50,208,33,17,46,074,22,19,48,118,,20,11,279,21*74
$GPGSV,3,3,10,24,65,295,26,28,19,057,*77
$GPGLL,,,,,145740.50,V,N*4C
$GPTXT,01,01,02,ANTSTATUS=OK*3B
$GPRMC,145741.00,V,,,,,,,290119,,,N*7D
$GPVTG,,,,,,,,,N*30
$GPGGA,145741.00,,,,,0,06,3.38,,,,,,*5A
$GPGSA,A,1,24,15,17,13,12,20,,,,,,,6.47,3.38,5.51*0B
$GPGSV,3,1,10,01,07,028,,10,15,307,,12,31,237,27,13,31,165,31*75
$GPGSV,3,2,10,15,50,208,34,17,46,074,23,19,48,118,,20,11,279,22*71
$GPGSV,3,3,10,24,65,295,27,28,19,057,*76
$GPGLL,,,,,145741.00,V,N*48
$GPRMC,145742.00,A,4921.12485,N,01751.02542,E,0.236,,290119,,,A*73
$GPVTG,,T,,M,0.236,N,0.437,K,A*24
$GPGGA,145742.00,4921.12485,N,01751.02542,E,1,06,1.30,391.0,M,41.4,M,,*54
$GPGSA,A,3,24,15,17,13,12,20,,,,,,,2.39,1.30,2.00*0D
$GPGSV,3,1,10,01,07,028,,10,15,307,,12,31,237,28,13,31,165,32*79
$GPGSV,3,2,10,15,50,208,35,17,46,074,24,19,48,118,,20,11,279,23*76
$GPGSV,3,3,10,24,65,295,27,28,19,057,*76
$GPGLL,4921.12485,N,01751.02542,E,145742.00,A,A*6F
$GPRMC,145743.00,A,4921.12386,N,01751.02402,E,0.342,,290119,,,A*71
$GPVTG,,T,,M,0.342,N,0.633,K,A*20
$GPGGA,145743.00,4921.12386,N,01751.02402,E,1,06,1.30,391.9,M,41.4,M,,*5D
$GPGSA,A,3,24,15,17,13,12,20,,,,,,,2.39,1.30,2.00*0D
$GPGSV,3,1,10,01,07,028,,10,15,307,,12,31,237,28,13,31,165,32*79
$GPGSV,3,2,10,15,50,208,35,17,46,074,25,19,48,118,,20,11,279,23*77
$GPGSV,3,3,10,24,65,295,28,28,19,057,*79
$GPGLL,4921.12386,N,01751.02402,E,145743.00,A,A*6F
$GPRMC,145744.00,A,4921.12228,N,01751.02248,E,0.381,,290119,,,A*74
$GPVTG,,T,,M,0.381,N,0.706,K,A*28
$GPGGA,145744.00,4921.12228,N,01751.02248,E,1,09,1.30,392.7,M,41.4,M,,*55
$GPGSA,A,3,24,15,19,17,13,12,28,10,20,,,,2.39,1.30,2.00*0E
$GPGSV,3,1,10,01,07,028,,10,15,307,20,12,31,237,28,13,31,165,31*78
$GPGSV,3,2,10,15,50,208,35,17,46,074,25,19,48,118,16,20,11,279,23*70
$GPGSV,3,3,10,24,65,295,28,28,19,057,18*70
$GPGLL,4921.12228,N,01751.02248,E,145744.00,A,A*65
$GPRMC,145745.00,A,4921.12187,N,01751.02228,E,0.605,,290119,,,A*7C
$GPVTG,,T,,M,0.605,N,1.121,K,A*23
$GPGGA,145745.00,4921.12187,N,01751.02228,E,1,10,1.30,392.5,M,41.4,M,,*5E
$GPGSA,A,3,24,15,19,17,13,12,28,10,20,01,,,2.39,1.30,2.00*0F
$GPGSV,3,1,10,01,07,028,14,10,15,307,19,12,31,237,28,13,31,165,31*77
$GPGSV,3,2,10,15,50,208,34,17,46,074,25,19,48,118,14,20,11,279,23*73
$GPGSV,3,3,10,24,65,295,28,28,19,057,16*7E
$GPGLL,4921.12187,N,01751.02228,E,145745.00,A,A*64
$GPRMC,145746.00,A,4921.12176,N,01751.02218,E,0.227,,290119,,,A*76
$GPVTG,,T,,M,0.227,N,0.420,K,A*22
$GPGGA,145746.00,4921.12176,N,01751.02218,E,1,10,1.30,391.6,M,41.4,M,,*50
$GPGSA,A,3,24,15,19,17,13,12,28,10,20,01,,,2.39,1.30,2.00*0F
$GPGSV,3,1,10,01,07,028,12,10,15,307,19,12,31,237,28,13,31,165,30*70
$GPGSV,3,2,10,15,50,208,33,17,46,074,24,19,48,118,13,20,11,279,23*72
$GPGSV,3,3,10,24,65,295,28,28,19,057,15*7D
$GPGLL,4921.12176,N,01751.02218,E,145746.00,A,A*6A
$GPRMC,145747.00,A,4921.12154,N,01751.02195,E,0.217,,290119,,,A*72
$GPVTG,,T,,M,0.217,N,0.402,K,A*21
$GPGGA,145747.00,4921.12154,N,01751.02195,E,1,10,1.18,391.1,M,41.4,M,,*5A
$GPGSA,A,3,24,15,19,17,13,12,28,10,20,01,,,2.20,1.18,1.86*00
$GPGSV,3,1,10,01,07,028,11,10,15,307,19,12,31,237,28,13,31,165,31*72
$GPGSV,3,2,10,15,50,208,34,17,46,074,24,19,48,118,14,20,11,279,23*72
$GPGSV,3,3,10,24,65,295,28,28,19,057,15*7D
$GPGLL,4921.12154,N,01751.02195,E,145747.00,A,A*6D
$GPRMC,145748.00,A,4921.12028,N,01751.02040,E,0.279,,290119,,,A*76
$GPVTG,,T,,M,0.279,N,0.516,K,A*2D
$GPGGA,145748.00,4921.12028,N,01751.02040,E,1,09,0.98,394.1,M,41.4,M,,*52
$GPGSA,A,3,24,15,19,17,13,12,28,10,20,,,,1.90,0.98,1.63*0B
$GPGSV,3,1,11,01,07,028,09,02,,,22,10,15,307,19,12,31,237,29*49
$GPGSV,3,2,11,13,31,165,31,15,50,208,34,17,46,074,24,19,48,118,13*7B
$GPGSV,3,3,11,20,11,279,23,24,65,295,28,28,19,057,14*42
$GPGLL,4921.12028,N,01751.02040,E,145748.00,A,A*61
$GPRMC,145749.00,A,4921.11962,N,01751.01926,E,0.288,,290119,,,A*77
$GPVTG,,T,,M,0.288,N,0.534,K,A*23
$GPGGA,145749.00,4921.11962,N,01751.01926,E,1,09,0.96,395.1,M,41.4,M,,*52
$GPGSA,A,3,24,15,19,17,13,12,28,10,20,,,,1.88,0.96,1.61*0E
$GPGSV,3,1,10,01,07,028,,10,15,307,19,12,31,237,29,13,31,165,31*73
$GPGSV,3,2,10,15,50,208,35,17,46,074,24,19,48,118,15,20,11,279,23*72
$GPGSV,3,3,10,24,65,295,28,28,19,057,14*7C
$GPGLL,4921.11962,N,01751.01926,E,145749.00,A,A*6E
$GPRMC,145750.00,A,4921.11926,N,01751.01846,E,0.130,,290119,,,A*78
$GPVTG,,T,,M,0.130,N,0.241,K,A*26
$GPGGA,145750.00,4921.11926,N,01751.01846,E,1,09,0.96,395.6,M,41.4,M,,*5A
$GPGSA,A,3,24,15,19,17,13,12,28,10,20,,,,1.88,0.96,1.61*0E
$GPGSV,3,1,10,01,07,028,,10,15,307,19,12,31,237,29,13,31,165,31*73
$GPGSV,3,2,10,15,50,208,35,17,46,074,24,19,48,118,15,20,11,279,23*72
$GPGSV,3,3,10,24,65,295,29,28,19,057,14*7D
$GPGLL,4921.11926,N,01751.01846,E,145750.00,A,A*61
$GPRMC,145751.00,A,4921.11930,N,01751.01819,E,0.443,,290119,,,A*75
$GPVTG,,T,,M,0.443,N,0.821,K,A*2B
$GPGGA,145751.00,4921.11930,N,01751.01819,E,1,09,0.96,394.9,M,41.4,M,,*58
$GPGSA,A,3,24,15,19,17,13,12,28,10,20,,,,1.88,0.96,1.61*0E
$GPGSV,3,1,11,01,07,028,,03,,,24,10,15,307,19,12,31,237,30*4F
$GPGSV,3,2,11,13,31,165,31,15,50,208,35,17,46,074,24,19,48,118,16*7F
$GPGSV,3,3,11,20,11,279,24,24,65,295,29,28,19,057,12*42
$GPGLL,4921.11930,N,01751.01819,E,145751.00,A,A*6D
$GPRMC,145752.00,A,4921.11895,N,01751.01786,E,0.197,,290119,,,A*7D
$GPVTG,,T,,M,0.197,N,0.365,K,A*2C
$GPGGA,145752.00,4921.11895,N,01751.01786,E,1,09,0.96,395.5,M,41.4,M,,*51
$GPGSA,A,3,24,15,19,17,13,12,28,10,20,,,,1.88,0.96,1.61*0E
$GPGSV,3,1,10,01,07,028,,10,15,307,19,12,31,237,29,13,31,165,31*73
$GPGSV,3,2,10,15,50,208,35,17,46,074,23,19,48,118,15,20,11,279,23*75
$GPGSV,3,3,10,24,65,295,29,28,19,057,13*7A
$GPGLL,4921.11895,N,01751.01786,E,145752.00,A,A*69
$GPRMC,145753.00,A,4921.11869,N,01751.01752,E,0.282,,290119,,,A*71
$GPVTG,,T,,M,0.282,N,0.522,K,A*2E
$GPGGA,145753.00,4921.11869,N,01751.01752,E,1,09,0.96,395.6,M,41.4,M,,*59
$GPGSA,A,3,24,15,19,17,13,12,28,10,20,,,,1.87,0.96,1.61*01
$GPGSV,3,1,10,01,07,028,,10,15,307,19,12,31,237,29,13,31,165,30*72
$GPGSV,3,2,10,15,50,208,34,17,46,074,22,19,48,118,15,20,11,279,22*74
$GPGSV,3,3,10,24,65,295,29,28,19,057,13*7A
$GPGLL,4921.11869,N,01751.01752,E,145753.00,A,A*62
$GPRMC,145754.00,A,4921.11851,N,01751.01745,E,0.701,,290119,,,A*75
$GPVTG,,T,,M,0.701,N,1.298,K,A*27
$GPGGA,145754.00,4921.11851,N,01751.01745,E,1,09,0.96,395.8,M,41.4,M,,*5D
$GPGSA,A,3,24,15,19,17,13,12,28,10,20,,,,1.87,0.96,1.61*01
$GPGSV,3,1,12,01,07,028,,04,,,24,05,,,26,10,15,307,18*7F
$GPGSV,3,2,12,12,31,237,29,13,31,165,30,15,50,208,34,17,46,074,23*7C
$GPGSV,3,3,12,19,48,118,15,20,11,279,23,24,65,295,29,28,19,057,13*7F
$GPGLL,4921.11851,N,01751.01745,E,145754.00,A,A*68
$GPRMC,145755.00,A,4921.11837,N,01751.01719,E,0.223,,290119,,,A*78
$GPVTG,,T,,M,0.223,N,0.414,K,A*21
$GPGGA,145755.00,4921.11837,N,01751.01719,E,1,09,0.96,395.6,M,41.4,M,,*5B
$GPGSA,A,3,24,15,19,17,13,12,28,10,20,,,,1.87,0.96,1.61*01
$GPGSV,3,1,10,01,07,028,,10,15,307,18,12,31,237,29,13,31,165,30*73
$GPGSV,3,2,10,15,50,208,34,17,46,074,22,19,48,118,16,20,11,279,23*76
$GPGSV,3,3,10,24,65,295,29,28,19,057,12*7B
$GPGLL,4921.11837,N,01751.01719,E,145755.00,A,A*60
$GPRMC,145756.00,A,4921.11829,N,01751.01695,E,0.385,,290119,,,A*7C
$GPVTG,,T,,M,0.385,N,0.713,K,A*28
$GPGGA,145756.00,4921.11829,N,01751.01695,E,1,09,0.96,395.3,M,41.4,M,,*57
$GPGSA,A,3,24,15,19,17,13,12,28,10,20,,,,1.87,0.96,1.61*01
$GPGSV,3,1,10,01,07,028,,10,15,307,18,12,31,237,30,13,31,165,30*7B
$GPGSV,3,2,10,15,50,208,34,17,46,074,22,19,48,118,16,20,11,279,23*76
$GPGSV,3,3,10,24,65,295,29,28,19,057,12*7B
$GPGLL,4921.11829,N,01751.01695,E,145756.00,A,A*69
$GPRMC,145757.00,A,4921.11842,N,01751.01716,E,0.606,,290119,,,A*74
$GPVTG,,T,,M,0.606,N,1.123,K,A*22
$GPGGA,145757.00,4921.11842,N,01751.01716,E,1,09,0.96,395.2,M,41.4,M,,*50
$GPGSA,A,3,24,15,19,17,13,12,28,10,20,,,,1.87,0.96,1.61*01
$GPGSV,3,1,10,01,07,028,,10,15,307,19,12,31,237,30,13,31,165,31*7B
$GPGSV,3,2,10,15,50,208,35,17,46,074,22,19,48,118,15,20,11,279,23*74
$GPGSV,3,3,10,24,65,295,29,28,19,057,12*7B
$GPGLL,4921.11842,N,01751.01716,E,145757.00,A,A*6F
$GPRMC,145758.00,A,4921.11868,N,01751.01759,E,0.485,,290119,,,A*71
$GPVTG,,T,,M,0.485,N,0.897,K,A*2C
$GPGGA,145758.00,4921.11868,N,01751.01759,E,1,09,1.12,394.3,M,41.4,M,,*51
$GPGSA,A,3,24,15,19,17,13,12,28,10,20,,,,2.17,1.12,1.85*0C
$GPGSV,3,1,10,01,07,028,,10,15,307,19,12,31,237,30,13,31,165,31*7B
$GPGSV,3,2,10,15,50,208,35,17,46,074,22,19,48,118,12,20,11,279,24*74
$GPGSV,3,3,10,24,65,295,29,28,19,057,13*7A
$GPGLL,4921.11868,N,01751.01759,E,145758.00,A,A*63
$GPRMC,145759.00,A,4921.11878,N,01751.01763,E,0.679,,290119,,,A*79
$GPVTG,,T,,M,0.679,N,1.258,K,A*25
$GPGGA,145759.00,4921.11878,N,01751.01763,E,1,10,0.96,393.6,M,41.4,M,,*5F
$GPGSA,A,3,24,15,19,17,13,12,28,10,20,01,,,1.87,0.96,1.61*00
$GPGSV,3,1,10,01,07,028,15,10,15,307,19,12,31,237,31,13,31,165,31*7E
$GPGSV,3,2,10,15,50,208,35,17,46,074,22,19,48,118,12,20,11,279,25*75
$GPGSV,3,3,10,24,65,295,29,28,19,057,12*7B
$GPGLL,4921.11878,N,01751.01763,E,145759.00,A,A*6A
$GPRMC,145800.00,A,4921.11882,N,01751.01765,E,0.662,,290119,,,A*73
$GPVTG,,T,,M,0.662,N,1.227,K,A*27
$GPGGA,145800.00,4921.11882,N,01751.01765,E,1,10,0.96,393.1,M,41.4,M,,*58
$GPGSA,A,3,24,15,19,17,13,12,28,10,20,01,,,1.87,0.96,1.61*00
$GPGSV,3,1,10,01,07,028,16,10,15,307,20,12,31,237,30,13,31,165,30*77
$GPGSV,3,2,10,15,50,208,34,17,46,074,23,19,48,118,12,20,11,279,24*74
$GPGSV,3,3,10,24,65,295,28,28,19,057,10*78
$GPGLL,4921.11882,N,01751.01765,E,145800.00,A,A*6A
$GPRMC,145801.00,A,4921.11896,N,01751.01789,E,0.365,,290119,,,A*77
$GPVTG,,T,,M,0.365,N,0.675,K,A*27
$GPGGA,145801.00,4921.11896,N,01751.01789,E,1,09,1.12,392.7,M,41.4,M,,*5C
$GPGSA,A,3,24,15,19,17,13,12,10,20,01,,,,2.17,1.12,1.85*07
$GPGSV,3,1,10,01,07,028,15,10,15,307,20,12,31,237,31,13,31,165,30*75
$GPGSV,3,2,10,15,50,208,34,17,46,074,23,19,48,118,12,20,11,279,24*74
$GPGSV,3,3,10,24,65,295,28,28,19,057,08*71
$GPGLL,4921.11896,N,01751.01789,E,145801.00,A,A*6C
$GPRMC,145802.00,A,4921.11895,N,01751.01798,E,0.580,,290119,,,A*7A
$GPVTG,,T,,M,0.580,N,1.074,K,A*2C
$GPGGA,145802.00,4921.11895,N,01751.01798,E,1,09,1.12,392.2,M,41.4,M,,*59
$GPGSA,A,3,24,15,19,17,13,12,10,20,01,,,,2.17,1.12,1.85*07
$GPGSV,3,1,10,01,07,028,16,10,15,307,20,12,31,237,31,13,31,165,31*77
$GPGSV,3,2,10,15,50,208,35,17,46,074,24,19,48,118,12,20,11,279,25*73
$GPGSV,3,3,10,24,65,295,28,28,19,057,08*71
$GPGLL,4921.11895,N,01751.01798,E,145802.00,A,A*6C
$GPRMC,145803.00,A,4921.11905,N,01751.01813,E,0.371,,290119,,,A*77
$GPVTG,,T,,M,0.371,N,0.687,K,A*2F
$GPGGA,145803.00,4921.11905,N,01751.01813,E,1,08,1.18,391.7,M,41.4,M,,*51
$GPGSA,A,3,24,15,17,13,12,10,20,01,,,,,2.20,1.18,1.85*01
$GPGSV,3,1,10,01,07,028,17,10,15,307,21,12,31,237,31,13,31,165,31*77
$GPGSV,3,2,10,15,50,208,35,17,46,074,24,19,48,118,,20,11,279,25*70
$GPGSV,3,3,10,24,65,295,28,28,19,057,09*70
$GPGLL,4921.11905,N,01751.01813,E,145803.00,A,A*69
$GPRMC,145804.00,A,4921.11886,N,01751.01799,E,0.049,,290119,,,A*7F
$GPVTG,,T,,M,0.049,N,0.091,K,A*26
$GPGGA,145804.00,4921.11886,N,01751.01799,E,1,08,0.99,392.4,M,41.4,M,,*59
$GPGSA,A,3,24,15,17,13,12,10,20,01,,,,,1.83,0.99,1.54*0F
$GPGSV,3,1,10,01,07,028,17,10,15,307,20,12,31,237,31,13,31,165,31*76
$GPGSV,3,2,10,15,50,208,35,17,46,074,25,19,48,118,,20,11,279,25*71
$GPGSV,3,3,10,24,65,295,28,28,18,057,09*71
$GPGLL,4921.11886,N,01751.01799,E,145804.00,A,A*69
$GPRMC,145805.00,A,4921.11864,N,01751.01780,E,0.140,,290119,,,A*72
$GPVTG,,T,,M,0.140,N,0.260,K,A*22
$GPGGA,145805.00,4921.11864,N,01751.01780,E,1,08,0.99,393.4,M,41.4,M,,*5D
$GPGSA,A,3,24,15,17,13,12,10,20,01,,,,,1.83,0.99,1.54*0F
$GPGSV,3,1,10,01,07,028,17,10,15,307,20,12,31,237,31,13,31,165,30*77
$GPGSV,3,2,10,15,50,208,34,17,46,074,25,19,48,118,,20,11,279,25*70
$GPGSV,3,3,10,24,65,295,28,28,18,057,07*7F
$GPGLL,4921.11864,N,01751.01780,E,145805.00,A,A*6C
$GPRMC,145806.00,A,4921.11847,N,01751.01761,E,0.077,,290119,,,A*7A
$GPVTG,,T,,M,0.077,N,0.142,K,A*24
$GPGGA,145806.00,4921.11847,N,01751.01761,E,1,08,0.99,394.4,M,41.4,M,,*57
$GPGSA,A,3,24,15,17,13,12,10,20,01,,,,,1.83,0.99,1.54*0F
$GPGSV,3,1,10,01,07,028,16,10,15,307,21,12,31,237,31,13,31,165,30*77
$GPGSV,3,2,10,15,50,208,35,17,46,074,25,19,48,118,,20,11,279,25*71
$GPGSV,3,3,10,24,65,295,28,28,18,057,08*70
$GPGLL,4921.11847,N,01751.01761,E,145806.00,A,A*61
$GPRMC,145807.00,A,4921.11824,N,01751.01737,E,0.028,,290119,,,A*77
$GPVTG,,T,,M,0.028,N,0.053,K,A*2F
$GPGGA,145807.00,4921.11824,N,01751.01737,E,1,08,0.99,395.5,M,41.4,M,,*50
$GPGSA,A,3,24,15,17,13,12,10,20,01,,,,,1.83,0.99,1.54*0F
$GPGSV,3,1,10,01,07,028,16,10,15,307,21,12,31,237,32,13,31,165,31*75
$GPGSV,3,2,10,15,50,208,35,17,46,074,25,19,48,118,,20,11,279,25*71
$GPGSV,3,3,10,24,65,295,27,28,18,057,07*70
$GPGLL,4921.11824,N,01751.01737,E,145807.00,A,A*66
$GPRMC,145808.00,A,4921.11774,N,01751.01671,E,0.134,,290119,,,A*7D
$GPVTG,,T,,M,0.134,N,0.249,K,A*2A
$GPGGA,145808.00,4921.11774,N,01751.01671,E,1,09,0.94,397.1,M,41.4,M,,*5C
$GPGSA,A,3,24,15,17,13,12,28,10,20,01,,,,1.78,0.94,1.52*0A
$GPGSV,3,1,10,01,07,028,15,10,15,307,21,12,31,237,32,13,31,165,31*76
$GPGSV,3,2,10,15,50,208,35,17,46,074,25,19,48,118,20,20,11,279,26*70
$GPGSV,3,3,10,24,65,295,27,28,18,057,11*77
$GPGLL,4921.11774,N,01751.01671,E,145808.00,A,A*60
$GPRMC,145809.00,A,4921.11730,N,01751.01607,E,0.196,,290119,,,A*75
$GPVTG,,T,,M,0.196,N,0.363,K,A*2B
$GPGGA,145809.00,4921.11730,N,01751.01607,E,1,09,0.93,398.3,M,41.4,M,,*56
$GPGSA,A,3,24,15,17,13,12,28,10,20,01,,,,1.78,0.93,1.52*0D
$GPGSV,3,1,10,01,07,028,15,10,15,307,21,12,31,237,32,13,31,165,31*76
$GPGSV,3,2,10,15,50,208,35,17,46,074,25,19,48,118,,20,11,279,26*72
$GPGSV,3,3,10,24,65,295,27,28,18,057,11*77
$GPGLL,4921.11730,N,01751.01607,E,145809.00,A,A*60
$GPRMC,145810.00,A,4921.11700,N,01751.01582,E,0.372,,290119,,,A*78
$GPVTG,,T,,M,0.372,N,0.689,K,A*22
$GPGGA,145810.00,4921.11700,N,01751.01582,E,1,09,0.99,399.1,M,41.4,M,,*5A
$GPGSA,A,3,24,15,17,13,12,28,10,20,01,,,,1.83,0.99,1.54*05
$GPGSV,3,1,10,01,07,028,16,10,15,307,22,12,31,237,32,13,31,165,31*76
$GPGSV,3,2,10,15,50,208,35,17,46,074,24,19,48,118,,20,11,279,26*73
$GPGSV,3,3,10,24,65,295,27,28,18,057,11*77
$GPGLL,4921.11700,N,01751.01582,E,145810.00,A,A*65
$GPRMC,145811.00,A,4921.11684,N,01751.01560,E,0.189,,290119,,,A*7E
$GPVTG,,T,,M,0.189,N,0.351,K,A*24
$GPGGA,145811.00,4921.11684,N,01751.01560,E,1,09,0.99,399.6,M,41.4,M,,*5D
$GPGSA,A,3,24,15,17,13,12,28,10,20,01,,,,1.83,0.99,1.54*05
$GPGSV,3,1,10,01,07,028,16,10,15,307,22,12,31,237,32,13,31,165,31*76
$GPGSV,3,2,10,15,50,208,35,17,46,074,24,19,48,118,,20,11,279,26*73
$GPGSV,3,3,10,24,65,295,27,28,18,057,11*77
$GPGLL,4921.11684,N,01751.01560,E,145811.00,A,A*65
$GPRMC,145812.00,A,4921.11671,N,01751.01542,E,0.190,,290119,,,A*7F
$GPVTG,,T,,M,0.190,N,0.352,K,A*2F
$GPGGA,145812.00,4921.11671,N,01751.01542,E,1,09,0.99,400.1,M,41.4,M,,*54
$GPGSA,A,3,24,15,17,13,12,28,10,20,01,,,,1.83,0.99,1.54*05
$GPGSV,3,1,10,01,07,028,16,10,15,307,22,12,31,237,32,13,31,165,31*76
$GPGSV,3,2,10,15,50,208,35,17,46,074,23,19,48,118,,20,11,279,25*77
$GPGSV,3,3,10,24,65,295,27,28,18,057,11*77
$GPGLL,4921.11671,N,01751.01542,E,145812.00,A,A*6C
$GPRMC,145813.00,A,4921.11650,N,01751.01521,E,0.066,,290119,,,A*70
$GPVTG,,T,,M,0.066,N,0.121,K,A*21
$GPGGA,145813.00,4921.11650,N,01751.01521,E,1,09,0.99,400.7,M,41.4,M,,*55
$GPGSA,A,3,24,15,17,13,12,28,10,20,01,,,,1.83,0.99,1.54*05
$GPGSV,3,1,10,01,07,028,15,10,15,307,21,12,31,237,32,13,31,165,31*76
$GPGSV,3,2,10,15,50,208,35,17,46,074,23,19,48,118,,20,11,279,26*74
$GPGSV,3,3,10,24,65,295,28,28,18,057,11*78
$GPGLL,4921.11650,N,01751.01521,E,145813.00,A,A*6B
$GPRMC,145814.00,A,4921.11641,N,01751.01510,E,0.039,,290119,,,A*7F
$GPVTG,,T,,M,0.039,N,0.073,K,A*2D
$GPGGA,145814.00,4921.11641,N,01751.01510,E,1,08,0.99,401.1,M,41.4,M,,*56
$GPGSA,A,3,24,15,17,13,12,10,20,01,,,,,1.83,0.99,1.54*0F
$GPGSV,3,1,10,01,07,028,14,10,15,307,21,12,31,237,33,13,31,165,31*76
$GPGSV,3,2,10,15,50,208,35,17,46,074,23,19,48,118,,20,11,279,26*74
$GPGSV,3,3,10,24,65,295,27,28,18,057,06*71
$GPGLL,4921.11641,N,01751.01510,E,145814.00,A,A*6E
$GPRMC,145815.00,A,4921.11661,N,01751.01520,E,0.317,,290119,,,A*70
$GPVTG,,T,,M,0.317,N,0.587,K,A*2C
$GPGGA,145815.00,4921.11661,N,01751.01520,E,1,08,1.18,400.8,M,41.4,M,,*56
$GPGSA,A,3,24,15,17,13,12,10,20,01,,,,,2.20,1.18,1.85*01
$GPGSV,3,1,10,01,07,028,13,10,15,307,21,12,31,237,32,13,31,165,31*70
$GPGSV,3,2,10,15,50,208,35,17,46,074,22,19,48,118,,20,11,279,25*76
$GPGSV,3,3,10,24,65,295,27,28,18,057,06*71
$GPGLL,4921.11661,N,01751.01520,E,145815.00,A,A*6E
$GPRMC,145816.00,A,4921.11683,N,01751.01537,E,0.125,,290119,,,A*7A
$GPVTG,,T,,M,0.125,N,0.231,K,A*25
$GPGGA,145816.00,4921.11683,N,01751.01537,E,1,08,1.18,400.4,M,41.4,M,,*53
$GPGSA,A,3,24,15,17,13,12,10,20,01,,,,,2.20,1.18,1.85*01
$GPGSV,3,1,10,01,07,028,12,10,15,307,21,12,31,237,32,13,31,165,31*71
$GPGSV,3,2,10,15,50,208,35,17,46,074,22,19,48,118,,20,11,279,25*76
$GPGSV,3,3,10,24,65,295,27,28,18,057,06*71
$GPGLL,4921.11683,N,01751.01537,E,145816.00,A,A*67
$GPRMC,145817.00,A,4921.11691,N,01751.01541,E,0.065,,290119,,,A*7C
$GPVTG,,T,,M,0.065,N,0.121,K,A*22
$GPGGA,145817.00,4921.11691,N,01751.01541,E,1,09,1.18,400.0,M,41.4,M,,*55
$GPGSA,A,3,24,15,17,19,13,12,10,20,01,,,,2.20,1.18,1.85*09
$GPGSV,3,1,10,01,07,028,11,10,15,307,20,12,31,237,32,13,31,165,31*73
$GPGSV,3,2,10,15,50,208,35,17,46,074,22,19,48,118,13,20,11,279,25*74
$GPGSV,3,3,10,24,65,295,27,28,18,057,06*71
$GPGLL,4921.11691,N,01751.01541,E,145817.00,A,A*64
$GPRMC,145818.00,A,4921.11694,N,01751.01545,E,0.294,,290119,,,A*7E
$GPVTG,,T,,M,0.294,N,0.544,K,A*29
$GPGGA,145818.00,4921.11694,N,01751.01545,E,1,07,1.18,399.8,M,41.4,M,,*5A
$GPGSA,A,3,24,15,17,13,12,10,20,,,,,,2.20,1.18,1.85*00
